name,address,city,state,postal_code,latitude,longitude,google_place_id
MORRIS PARK BAKE SHOP,1007 MORRIS PARK AVENUE,Bronx,NY,10462,40.848231224526,-73.855971889932,ChIJR2iKr6X0wokRqgE7AsCXR4Q
D.J. REYNOLDS,351 WEST   57 STREET,Manhattan,NY,10019,40.767325711553,-73.984310423617,ChIJ03By9lhYwokRfGgIPEcxNlM
RIVIERA CATERERS,2780 STILLWELL AVENUE,Brooklyn,NY,11224,40.579895663312,-73.982086655861,ChIJORtGIUtEwokRRkJrOQDvZPM
WILKEN'S FINE FOOD,7114 AVENUE U,Brooklyn,NY,11234,40.620111590927,-73.906989489698,ChIJE0bysTZDwokR8f0bBXYZjbU
TASTE THE TROPICS ICE CREAM,1839 NOSTRAND AVENUE,Brooklyn,NY,11226,40.640795017461,-73.948487981531,ChIJA9tq-09bwokR4V5qqyuYzCM
WILD ASIA,2300 SOUTHERN BOULEVARD,Bronx,NY,10460,40.850536751997,-73.88245508146,ChIJhV2BBYr1wokRyJB4xQNYDz0
1 EAST 66TH STREET KITCHEN,1 EAST   66 STREET,Manhattan,NY,10065,40.768546914232,-73.969580578452,ChIJYdHIa-lYwokRmeZUvOoldMo
NATHAN'S FAMOUS,1310 SURF AVENUE,Brooklyn,NY,11224,40.575536869421,-73.981652264112,ChIJQQaDPzVEwokRwJfPzNzyNnI
SEUDA FOODS,705 KINGS HIGHWAY,Brooklyn,NY,11223,40.606186921432,-73.965466445897,ChIJm6ureO5EwokRvq-XlFFFr2w
SAL'S DELI,12908 20 AVENUE,Queens,NY,11356,40.781673836068,-73.839415976831,ChIJ-_x_Aa2KwokRqFJJzzxM1EE
STEVE CHU'S DELI & GROCERY,3406 10 STREET,Queens,NY,11106,40.764571212478,-73.938825461701,ChIJha0ydctYwokR8fPG306kQZU
P & S DELI GROCERY,730 COLUMBUS AVENUE,Manhattan,NY,10025,40.792620635885,-73.96770961573,ChIJ10yifCf2wokRDiZPK-60xM8
ANGELIKA FILM CENTER,18 WEST HOUSTON STREET,Manhattan,NY,10012,40.725743617441,-73.997478107592,ChIJQ1RTt49ZwokRgYgqG6DdK2w
HO MEI RESTAURANT,10305 37 AVENUE,Queens,NY,11368,40.753305911581,-73.864295375778,ChIJfUggt8BfwokRD7KOaE29LJ8
SHASHEMENE INT'L RESTAURANT,195 EAST   56 STREET,Brooklyn,NY,11203,40.651983222786,-73.924574944152,ChIJD2sx45lcwokR5pK_dvOFonk
CAFE METRO,625 8 AVENUE,Manhattan,NY,10018,40.756185423077,-73.990564733785,ChIJQzxNYepZwokRCYqnc_ftZcc
BAGELS N BUNS,2491 VICTORY BOULEVARD,Staten Island,NY,10314,40.610267863828,-74.146401210286,ChIJ2SUpjTdMwokRI49oATCToIs
CARVEL,1111 HYLAN BOULEVARD,Staten Island,NY,10305,40.598553130746,-74.079646008177,ChIJZ9JH4-JOwokR9F9Jfcfhw3Q
NEW GOLDEN BILLION,976 RUTLAND ROAD,Brooklyn,NY,11212,40.662140594575,-73.92718021322,ChIJ8RMxy4VcwokR6CQvFVzJMsA
MISS MAIME'S SPOONBREAD TOO,364 WEST  110 STREET,Manhattan,NY,10025,40.80137126967,-73.96015994361,ChIJMy2SSj32wokRYJFmKli4HvA
KOSHER BAGEL HOLE,1423 AVENUE J,Brooklyn,NY,11230,40.625111128727,-73.962034339365,ChIJgwVZDcZEwokR6ynFoZpuo3g
HAPPY GARDEN,277 EAST KINGSBRIDGE ROAD,Bronx,NY,10458,40.863648812188,-73.894239617341,ChIJAVeBXIHzwokRlY9ojtEyc2A
PHILADELPHIA GRILLE EXPRESS,10004 4 AVENUE,Brooklyn,NY,11209,40.612722489797,-74.033751771822,ChIJMTjUOYZPwokRYiOvRG86diY
PETER LUGER STEAKHOUSE,178 BROADWAY,Brooklyn,NY,11211,40.709979804558,-73.962512437328,ChIJR_bK295bwokR8gM6QgEdmkY
METROPOLITAN CLUB,1 EAST   60 STREET,Manhattan,NY,10022,40.764795521845,-73.97230783434,ChIJ2bi4I_BYwokRRvRWXH7TUDw
ISLE OF CAPRI RESTURANT,1028 3 AVENUE,Manhattan,NY,10065,40.76270773611,-73.965749576014,ChIJpRVGV-9YwokRHnDd6TD7qxQ
OLD TOWN BAR & RESTAURANT,45 EAST   18 STREET,Manhattan,NY,10003,40.73759507351,-73.989647208522,ChIJw-9BIqJZwokRJHawGH7Y_kc
SEVILLA RESTAURANT,62 CHARLES STREET,Manhattan,NY,10014,40.734908378121,-74.00297328507,ChIJpx2fW5RZwokRge-7dBOrTSQ
CRIMINAL COURT BLDG CAFETERIA,100 CENTRE STREET,Manhattan,NY,10013,40.71607656565,-74.001424896229,ChIJDTph0yBawokR9WlbwRx3A6Q
GOTTSCHEER HALL,657 FAIRVIEW AVENUE,Queens,NY,11385,40.706647972614,-73.90573574011,ChIJQbogzJ1ewokRUJAowaUOLnM
NYAC MAIN DINING ROOM,180 CENTRAL PARK SOUTH,Manhattan,NY,10019,40.766718222992,-73.978736594767,ChIJkTUkH_dYwokR4WJX186l4Os
7B BAR,108 AVENUE B,Manhattan,NY,10009,40.724984562415,-73.981282649047,ChIJ_dHPIXhZwokRjbflLgfCFkM
CAFE ATELIER (ART STUDENTS LEAGUE),215 WEST   57 STREET,Manhattan,NY,10019,40.765886941316,-73.980895665472,ChIJLfifovdYwokR1ddIX26VPwQ
DONOHUE'S STEAK HOUSE,845 LEXINGTON AVENUE,Manhattan,NY,10065,40.765512884509,-73.965769788003,ChIJ3SY60u5YwokRU9T-obR5cXY
JUNIOR'S,386 FLATBUSH AVENUE EXTENSION,Brooklyn,NY,11201,40.690200145894,-73.981624196473,ChIJKSnzQJVewokRme40boVi4uk
OLD HOMESTEAD,56 9 AVENUE,Manhattan,NY,10011,40.741372224356,-74.005037755098,ChIJ7-2lDL9ZwokRvzpIH3Etebo
NEW PARK PIZZERIA & RESTAURANT,156-71 CROSSBAY BOULEVARD,Queens,NY,11414,40.663101703308,-73.840837932811,ChIJmfrimH1nwokRhflc9s_zHSU
DOUGLASTON CLUB,600 WEST DRIVE,Queens,NY,11363,40.776329722511,-73.752835442703,ChIJ3xNDnx6KwokRXJ-uCGIAv0w
THE NEW STARLING ATHLETIC CLUB OF THE BRONX,2222 HAVILAND AVENUE,Bronx,NY,10462,40.830610122115,-73.849646682665,ChIJxfWfMMn0wokRnHmWCklCA0s
CRYSTAL ROOM,67 OLYMPIA BOULEVARD,Staten Island,NY,10305,40.592814177678,-74.070677121271,ChIJ1xY6ShlPwokRo6XwbjBMGxQ
MCSORLEY'S OLD ALE HOUSE,15 EAST    7 STREET,Manhattan,NY,10003,40.728584000789,-73.989536765481,ChIJGdCSd5tZwokRfYvMyzO7qtE
SOUTH SHORE SWIMMING CLUB,6736 HYLAN BOULEVARD,Staten Island,NY,10309,40.508068517904,-74.228282145067,ChIJH8xw1ajKw4kRcHmh8rLgvdM
CORNER BISTRO,331 WEST    4 STREET,Manhattan,NY,10014,40.737924847314,-74.003861116033,ChIJ0_ZHCiRZwokRUydW_tjoTs4
DORRIAN'S RED HAND RESTAURANT,1616 2 AVENUE,Manhattan,NY,10028,40.776404966262,-73.952802065662,ChIJteIB7LtYwokRtpSjMShuna8
LA GRENOUILLE,3 EAST   52 STREET,Manhattan,NY,10022,40.759658161533,-73.975977435444,ChIJY6LmkvtYwokRF9f8cvuztK4
KEATS RESTAURANT,842 2 AVENUE,Manhattan,NY,10017,40.751598370567,-73.970894901051,ChIJhREnMB1ZwokRJZkTG2ejqQU
ARTURO'S,106 WEST HOUSTON STREET,Manhattan,NY,10012,40.727234052041,-74.000515935209,ChIJ_W7QdcJZwokR1I9MovwwnUo
YANKEE TAVERN,72 EAST  161 STREET,Bronx,NY,10451,40.827557861039,-73.925141196877,ChIJKcWnby30wokRFHtS0LZzoF8
DONUT PUB,203 WEST   14 STREET,Manhattan,NY,10011,40.738748341271,-74.000144342577,ChIJ7TDV571ZwokRvqsr3Mv_gI8
REBEN LUNCHEONETTE,229 HAVEMEYER STREET,Brooklyn,NY,11211,40.709039945161,-73.959151290226,ChIJgwNjm-BbwokRCq-MjYKT1ok
V & T RESTAURANT,1024 AMSTERDAM AVENUE,Manhattan,NY,10025,40.803329420525,-73.963611914951,ChIJtUqk7Dz2wokRsi_5j6j1DHM
JAHN'S RESTAURANT,8104 37 AVENUE,Queens,NY,11372,40.74965336582,-73.885073567329,ChIJh5G77qhfwokRQxa2rO4j0eE
J&V FAMOUS PIZZA,6322 18 AVENUE,Brooklyn,NY,11204,40.619956732515,-73.989352140632,ChIJ4TjsMiJFwokRih1T2YTQNQE
JOE ALLEN RESTAURANT,326 WEST   46 STREET,Manhattan,NY,10036,40.760178896668,-73.988882031739,ChIJ0QKr91NYwokRhzehyIw3f0s
GARGIULO'S RESTAURANT,2911 WEST   15 STREET,Brooklyn,NY,11224,40.576555331866,-73.982584323148,ChIJJ64aUTVEwokRrJN-MEyx9xM
PATSY'S ITALIAN RESTAURANT,236 WEST   56 STREET,Manhattan,NY,10019,40.765618195284,-73.98239751366,ChIJ22yt_PdYwokRFf4cnErij6k
PARKSIDE RESTAURANT,107-01 CORONA AVENUE,Queens,NY,11368,40.743725104829,-73.856238382915,ChIJi92ZUM5fwokRekBGVkRa6jw
LAVELLE'S ADMIRAL'S CLUB,4515 BROADWAY,Queens,NY,11103,40.757002312956,-73.914799999814,ChIJ4U06Ej1fwokRYKYcf402V2s
NEARY'S PUB,358 EAST   57 STREET,Manhattan,NY,10022,40.758639389205,-73.963748322244,ChIJtYFNwuZYwokRabt0PRBrFyo
NEW YORK PIZZA SUPREMA,413 8 AVENUE,Manhattan,NY,10001,40.750031951553,-73.995040989424,ChIJjaD94kFZwokR-20CXqlpy_4
MEE SUM CAFE,26 PELL STREET,Manhattan,NY,10013,40.714860627928,-73.998199974185,ChIJfXfu_CZawokRsynindnEfPY
NANCY'S RESTAURANT,25541 JAMAICA AVENUE,Queens,NY,11001,40.727412703327,-73.709620966368,ChIJ18Gp7VpiwokRQoNxRqZCy3o
HOP KEE RESTAURANT,21 MOTT STREET,Manhattan,NY,10013,40.71436383248,-73.998784360399,ChIJTVG07iZawokR6lRX9rV0puI
NANCY WHISKEY PUB,1 LISPENARD STREET,Manhattan,NY,10013,40.720539457665,-74.005010921281,ChIJT04J54pZwokR8ScZIBBgLTk
BLARNEY BAR,14609 JAMAICA AVENUE,Queens,NY,11435,40.701803341646,-73.808675609014,ChIJKz2AFMVgwokRiwJYTC0ek5Y
MARGHERITA PIZZA,16304 JAMAICA AVENUE,Queens,NY,11432,40.704667713048,-73.796822882442,ChIJn7RjQyBhwokRoHtQ6fBp7iI
HEALY'S PUB,10807 ROCKAWAY BEACH BOULEVARD,Queens,NY,11694,40.581733753666,-73.830282829448,ChIJkwky3jFowokR8HxUBqiOdfs
FIFTH AVENUE BINGO,416 5 AVENUE,Brooklyn,NY,11215,40.670037593839,-73.985591483957,ChIJyctDtf1awokR37wYwLWGPIo
DENINO'S PIZZERIA TAVERN,524 PORT RICHMOND AVENUE,Staten Island,NY,10302,40.630024412021,-74.140168869243,ChIJO-UIwMVNwokRc5w60Z4FMpo
MICHAEL'S RESTAURANT,2929 AVENUE R,Brooklyn,NY,11229,40.607418586159,-73.943003631919,ChIJ2cccPJlEwokRnkUFMJ3M_-k
KILLARNEY ROSE,80 BEAVER STREET,Manhattan,NY,10005,40.705338706862,-74.008692264913,ChIJQalvcBZawokRGSuWUh6cZiI
DON PEPPE,13558 LEFFERTS BOULEVARD,Queens,NY,11420,40.670258237563,-73.820976082388,ChIJ4Vgyn2tnwokRi3vnVvaHfv8
BLARNEY CASTLE,20224 ROCKAWAY POINT BOULEVARD,Queens,NY,11697,40.560775789189,-73.911783397474,ChIJYS8doUtCwokRYEs3oC4fPNU
ROLL-N-ROASTER,2901 EMMONS AVENUE,Brooklyn,NY,11235,40.58386660862,-73.939690057418,ChIJyZn7GXlEwokR8z0rpM0kTUU
TIO PEPE,168 WEST    4 STREET,Manhattan,NY,10014,40.732056597098,-74.001443280258,ChIJ06Eo6ZNZwokR_ngr5nAD7do
BRENNAN & CARR,3432 NOSTRAND AVENUE,Brooklyn,NY,11229,40.600385883899,-73.94189333042,ChIJIR1zpoREwokR4K-1vhYrzv0
THE PUNCH BOWL,5820 BROADWAY,Bronx,NY,10463,40.885206062282,-73.900573930546,ChIJQegVNqPzwokRJBfBwvZqrY8
JARDIN DE CHINA REST,3737 JUNCTION BOULEVARD,Queens,NY,11368,40.750754804569,-73.870360475566,ChIJ43rlGLlfwokRkwb5mrdsl00
BLARNEY STONE,11 TRINITY PLACE,Manhattan,NY,10006,40.706523941132,-74.013846556301,ChIJWUf6PBFawokRifmCHSgp17w
SHIMONS KOSHER PIZZA,71-24 MAIN STREET,Queens,NY,11367,40.727181176223,-73.822096177766,ChIJpew-iItgwokRF1WUp8APwpU
FASCATI'S PIZZERIA,80 HENRY STREET,Brooklyn,NY,11201,40.698443928676,-73.992545623939,ChIJAxQpsDdawokRVz-rTsNwDSo
LI GRECI'S STAATEN RESTAURANT,697 FOREST AVENUE,Staten Island,NY,10310,40.629475941557,-74.11233734162,ChIJq-b4AW5OwokRPOf5Xq7VWtQ
SHUN LEE PALACE RESTAURANT,155 EAST   55 STREET,Manhattan,NY,10022,40.759376653074,-73.96948371139,ChIJO8Bn7eRYwokRzpiMOXnARiU
TAMAQUA,84 EBONY COURT,Brooklyn,NY,11229,40.59435177089,-73.930156614832,ChIJqRyX_3tDwokRYVLTGbLFzpo
LA FUSTA RESTAURANT,8032 BAXTER AVENUE,Queens,NY,11373,40.744706795371,-73.884569670655,ChIJFx8HV6lfwokRZBepb4QEmX8
RICHMOND COUNTY COUNTRY CLUB,135 FLAGG PLACE,Staten Island,NY,10304,40.58793589848,-74.104072714536,ChIJu1cimoNPwokRVR3oxRVUVa0
LULU'S COFFEE SHOP,1191 CASTLE HILL AVENUE,Bronx,NY,10462,40.831707036899,-73.850999305895,ChIJrTFo48j0wokREh-lN_bawU8
MITCHELL'S RESTAURANT,617A VANDERBILT AVENUE,Brooklyn,NY,11238,40.678850369751,-73.968417476489,ChIJW26mKqRbwokR6Izc28izkfE
DA VINCI PIZZA,6514 18 AVENUE,Brooklyn,NY,11204,40.61897967707,-73.990342864857,ChIJDT7saSJFwokR4SzquhN44KY
MEXICO LINDO RESTAURANT,459 2 AVENUE,Manhattan,NY,10010,40.739644067898,-73.979614944263,ChIJ5Yl_fQlZwokRc5aNVwXCQgg
MARINA DEL REY,2894 SCHURZ AVENUE,Bronx,NY,10465,40.814538549783,-73.815055436186,ChIJa-6o0R6LwokRuZQIloWnauY
BROOME STREET BAR,363 WEST BROADWAY,Manhattan,NY,10013,40.723116860955,-74.003124280993,ChIJEXPuhotZwokRa4EDU1xXe8E
O'HANLON'S PUB,2257 31 STREET,Queens,NY,11105,40.774948266802,-73.912119596608,ChIJ5zSs_mdfwokReKFvC6twfIU
CHARLIES SPORTS BAR,4408 60TH ST,Queens,NY,11377,40.742010527663,-73.904480194358,ChIJQbScbBtfwokRQv6ITr1Wt-c
JG MELON RESTAURANT,1291 3 AVENUE,Manhattan,NY,10021,40.771192500921,-73.959531818288,ChIJORutA8BYwokR6obC5YpaamM
"TAP ROOM, GRAB & GO",180 CENTRAL PARK SOUTH,Manhattan,NY,10019,40.766718222992,-73.978736594767,ChIJkTUkH_dYwokR4WJX186l4Os
COCKTAIL ROOM (NYAC),180 CENTRAL PARK SOUTH,Manhattan,NY,10019,40.766718222992,-73.978736594767,ChIJe8AFBXhZwokR6LfDf9I1Psw
THE FLAME DINER,893 9 AVENUE,Manhattan,NY,10019,40.768431984928,-73.9853426732,ChIJFZlc5FhYwokRbT7uEa40OmY
JACKSON HOLE,232 EAST   64 STREET,Manhattan,NY,10065,40.764309967429,-73.963456427466,ChIJz1Tn8OhYwokR3vYhdkNqVFc
ZUM STAMMTISCH,6946 MYRTLE AVENUE,Queens,NY,11385,40.70186889553,-73.881596583326,ChIJYWfnkHhewokRJg65MA20rGA
BUDDY'S WONDER BAR,17 HARRISON AVENUE,Staten Island,NY,10302,40.636755420817,-74.134937047229,ChIJyUbUR91NwokRD7dOVDks_58
MIMIS RESTAURANT & BAR,984 SECOND AVENUE,Manhattan,NY,10022,40.756216898717,-73.967528807602,ChIJucrMu-NYwokRzSk_xQa9Ck4
LENNY'S CLAM BAR,16103 CROSSBAY BOULEVARD,Queens,NY,11414,40.655550935611,-73.83896749314,ChIJJZUbfH9nwokRB4PiUl_hUls
GRIFFIS FACULTY CLUB,521 EAST   68 STREET,Manhattan,NY,10065,40.764156112386,-73.955283592822,ChIJBSZVvcNYwokRV7_ghSBPvyM
DANI PIZZA AND RESTAURANT,8128 LEFFERTS BOULEVARD,Queens,NY,11415,40.708866954929,-73.830434010524,ChIJCeaFFaVgwokRWbrmlcnEGzY
MCDONALD'S,943 FLATBUSH AVENUE,Brooklyn,NY,11226,40.648723192538,-73.958298253196,ChIJg0sUv0BbwokRtxaW0gw8DTg
CAFE FIORELLO,1900 BROADWAY,Manhattan,NY,10023,40.771511149198,-73.982150446461,ChIJs4mykPVYwokRfQShiIGQbqE
L&B SPUMONI GARDENS,2725 86 STREET,Brooklyn,NY,11223,40.594393518287,-73.981359004171,ChIJqz1lIlVEwokRyXTXxNS4Rb0
AMORE PIZZERIA & RESTAURANT,3027 STRATTON STREET,Queens,NY,11354,40.769658810731,-73.834693968308,ChIJjTFV6wNgwokR3Vtyb77DlCE
THE PATIO,2300 SOUTHERN BOULEVARD,Bronx,NY,10460,40.850536751997,-73.88245508146,ChIJhV2BBYr1wokRyJB4xQNYDz0
ZOO BREWS-BRONX ZOO,2300 SOUTHERN BOULEVARD,Bronx,NY,10460,40.850536751997,-73.88245508146,ChIJNVnWXgD1wokRVJz2kgiCoL4
GRIZZLY GROUNDS,2300 SOUTHERN BOULEVARD,Bronx,NY,10460,40.850536751997,-73.88245508146,ChIJXcW15YX0wokRFEvwb_S6Zac
THE PECKING ORDER,2300 SOUTHERN BOULEVARD,Bronx,NY,10460,40.850536751997,-73.88245508146,ChIJhV2BBYr1wokRyJB4xQNYDz0
SOMBA VILLAGE (BABOON CAFE),2300 SOUTHERN BOULEVARD,Bronx,NY,10460,40.850536751997,-73.88245508146,ChIJXcW15YX0wokRFEvwb_S6Zac
ROADHOUSE RESTAURANT,1402 CLOVE ROAD,Staten Island,NY,10301,40.613366849845,-74.100456725438,ChIJ0_lqqopOwokRffglcNLp948
ELEPHANT & CASTLE,68 GREENWICH AVENUE,Manhattan,NY,10011,40.736313732048,-74.000941800769,ChIJM0rq2JVZwokRDlxoPRqwCWs
MILL BASIN KOSHER DELI,5823 AVENUE T,Brooklyn,NY,11234,40.615314177459,-73.918410519092,ChIJOfPzdkZDwokRp-inFN4jIeE
OYSTER BAR,0 GRAND CENTRAL TERMINAL,Manhattan,NY,10017,40.752513822619,-73.977304639681,ChIJR9legAFZwokRa1s5gcFXPZw
CHERRY TAVERN,441 EAST    6 STREET,Manhattan,NY,10009,40.72599520843,-73.985196904415,ChIJc2yQSp1ZwokRjcWYA96Gmzg
COLONNADE DINER,2001 HYLAN BOULEVARD,Staten Island,NY,10306,40.581163905657,-74.098543291202,ChIJ5Uh5SshOwokRzDO_GIHhjF8
RED FLAME DINER,67 WEST   44 STREET,Manhattan,NY,10036,40.755627203336,-73.981938150269,ChIJs5kQ9P9YwokR0-5r5j2SiR4
MAGGIE'S PLACE,21 EAST   47 STREET,Manhattan,NY,10017,40.75615887998,-73.977386411729,ChIJXWx8eP5YwokRCclAhRLMks0
BRADY'S BAR,1583 2 AVENUE,Manhattan,NY,10028,40.775433620871,-73.953532090009,ChIJwXsOq75YwokR-a3vffsB8gM
JIMMY'S CORNER,140 WEST   44 STREET,Manhattan,NY,10036,40.756612923674,-73.984331004337,ChIJqz-3FVVYwokRo_z9ZJDCM3g
IL CORTILE RESTAURANT,123 MULBERRY STREET,Manhattan,NY,10013,40.717890850638,-73.99810609883,ChIJOQ8A1IlZwokRd4ZMRvOMQ3o
DENNY'S PUB,106 BEVERLY ROAD,Brooklyn,NY,11218,40.642931856285,-73.978869881609,ChIJCetWGSlbwokR3PEEmWQ_lNs
MARIES CRISIS CAFE,59 GROVE STREET,Manhattan,NY,10014,40.733135251667,-74.003287124204,ChIJIWNZgJNZwokRsOATqnluSIk
NEW PARKWAY RESTAURANT,7504 13 AVENUE,Brooklyn,NY,11228,40.620195775133,-74.00754646331,ChIJ-_43HkBFwokRwMZ1q8gP7Pc
CAFE RIAZOR,245 WEST   16 STREET,Manhattan,NY,10011,40.740439115543,-74.000025260594,ChIJG220KbxZwokRHjswHYJpZb8
RAOULS,180 PRINCE STREET,Manhattan,NY,10012,40.726320028034,-74.002034849311,ChIJBUwsto1ZwokRsW3Dy0Y1cO0
THE BROOK,111 EAST   54 STREET,Manhattan,NY,10022,40.759426587413,-73.971541211282,ChIJycCGNftYwokRQY8HkabDp1k
MARBELLA RESTAURANT,22033 NORTHERN BOULEVARD,Queens,NY,11361,40.761601625705,-73.760759718274,ChIJN57WvuJhwokRSJvUHq360O0
P.J.' S,18925 UNION TURNPIKE,Queens,NY,11366,40.729537226386,-73.779969217943,ChIJS-k786ZhwokRwbTzqzv4OzA
DOUBLES CLUB,783 5 AVENUE,Manhattan,NY,10022,40.764532145131,-73.972809729679,ChIJx8gpa_BYwokR7bF7UzsShpY
HATSUHANA RESTAURANT,17 EAST   48 STREET,Manhattan,NY,10017,40.756891688533,-73.977173198465,ChIJw47zKvxYwokRgD1Zt5Licyo
VALENTINO'S PIZZA,7147 KISSENA BOULEVARD,Queens,NY,11367,40.728528733563,-73.815074973898,ChIJh_bMU_RgwokRS_6hMbmbdcM
VIAND COFFEE SHOP,673 MADISON AVENUE,Manhattan,NY,10065,40.764924053413,-73.970416146817,ChIJXz3lxO9YwokRnSqS_Lpt4ss
STEVE'S COFFEE SHOP,4034 162 ST,Queens,NY,11358,40.761746413664,-73.803802767367,ChIJwQMLqi9gwokRHMPkQa1AYf8
JODY'S CLUB,372 FOREST AVENUE,Staten Island,NY,10301,40.63100906274,-74.101895649669,ChIJ9R9XYGpOwokRUEmXJhtW0mU
REIF'S TAVERN,302 EAST   92 STREET,Manhattan,NY,10128,40.781511138984,-73.948577300186,ChIJAW4Ub6VYwokRsUbtg17_8P8
WHITESTONE LANES,3005 WHITESTONE EXPRESSWAY,Queens,NY,11354,40.770708647549,-73.833720179111,ChIJm3klDgBhwokRZznlH0Qft-w
JOHN'S PIZZERIA,8502 GRAND AVENUE,Queens,NY,11373,40.734921850516,-73.882013926505,ChIJi0aiQVFewokRbkOlANqMQ-E
SEASHORE RESTAURANT,591 CITY ISLAND AVENUE,Bronx,NY,10464,40.854116926666,-73.790573593575,ChIJEYbUenyMwokRwlydycwoZJw
CAFFE REGGIO,119 MAC DOUGAL STREET,Manhattan,NY,10012,40.730206634013,-74.000317512808,ChIJr4J2gZFZwokRA2y5p4UfH8I
CAFE UN DEUX TROIS,123 WEST   44 STREET,Manhattan,NY,10036,40.756483871142,-73.98397730097,ChIJt1zga1VYwokR6xt-JzNU3Yg
ARMANDO'S PIZZA,1366 PENNSYLVANIA AVENUE,Brooklyn,NY,11239,40.647983742716,-73.881926814947,ChIJe09NjBxdwokRPnSd1XcmGAs
KNICKERBOCKER BAR & GRILL,33 UNIVERSITY PLACE,Manhattan,NY,10003,40.731968639466,-73.994450594757,ChIJeb6z-JlZwokRiZa4J1J0aGk
THE RIVER CAFE,1 WATER STREET,Brooklyn,NY,11201,40.702959180239,-73.99433760709,ChIJ2QZOdTpawokRU_eN_EPJaX8
MUDVILLE9,126 CHAMBERS STREET,Manhattan,NY,10007,40.715299468091,-74.008790965756,ChIJV1VdJB9awokRsucxnGK_eTE
JOHNNY'S REEF RESTAURANT,2 CITY ISLAND AVENUE,Bronx,NY,10464,40.837664418816,-73.782898935512,ChIJh4kgf4-LwokRNpMUb_r4n70
WHITE CASTLE,846 EMPIRE BOULEVARD,Brooklyn,NY,11213,40.66349139936,-73.932264652274,ChIJeXU_LoJcwokRHDK7L9Rqvys
WHITE CASTLE,2701 BOSTON POST ROAD,Bronx,NY,10467,40.865624074297,-73.862253934582,ChIJzVAe2FzzwokR38h1ZOp2knk
WHITE CASTLE,4302 QUEENS BOULEVARD,Queens,NY,11104,40.743450594604,-73.921327711204,ChIJI2zQCdlewokRYS7uZ4fWzng
FERDINANDO'S RESTAURANT,151 UNION STREET,Brooklyn,NY,11231,40.684124670454,-74.002062401532,ChIJH5K_GVxawokRSbTRZ6HvvWs
MCDONALD'S,701 UTICA AVENUE,Brooklyn,NY,11203,40.656181203396,-73.930844886732,ChIJn97efZxcwokRrPCpHynXomE
VILLA MOSCONI RESTAURANT,69 MACDOUGAL STREET,Manhattan,NY,10012,40.72853780392,-74.001731844504,ChIJdTlCDJJZwokRsWk0mTd4oV8
SPARKS STEAK HOUSE,210 EAST   46 STREET,Manhattan,NY,10017,40.753097308196,-73.972096155466,ChIJY8nVpQJZwokR1SyYE-gyalA
THE DART SPORTS BAR,8318 PARSONS BOULEVARD,Queens,NY,11432,40.715270326351,-73.807698905887,ChIJP5_rtOhgwokRRW-4AhSb5nM
BAMONTE'S RESTAURANT,32 WITHERS STREET,Brooklyn,NY,11211,40.716727740645,-73.951340215867,ChIJxRbhJZbmXIgRXq5i2VErjJ4
JOHN MULLIGAN'S FIRESIDE PUB,4272 KATONAH AVENUE,Bronx,NY,10470,40.89778438017,-73.867218605002,ChIJC8pPQODywokR2zkDrjPHrMs
BURGER KING,22210 NORTHERN BOULEVARD,Queens,NY,11361,40.761859115241,-73.7591993411,ChIJQT_ES_1hwokRXmM8dTJHBa8
EAR INN,326 SPRING STREET,Manhattan,NY,10013,40.725993041785,-74.009301091655,ChIJtSjFCfNZwokRMW-KSzp4o4c
ROSSINI'S,108 EAST   38 STREET,Manhattan,NY,10016,40.749349425399,-73.978940662754,ChIJV6mJyQZZwokRPoUsJJjsgoI
THREE GUY'S RESTAURANT,960 MADISON AVENUE,Manhattan,NY,10021,40.773974376779,-73.963841035522,ChIJaeIHjZRYwokRyAKp5S2vpe0
SMITH & WOLLENSKY,201 EAST   49 STREET,Manhattan,NY,10017,40.755051274002,-73.970875339288,ChIJSRfEz-JYwokRJPv5jzaGA0k
MCDONALD'S,16011 WILLETS POINT BOULEVARD,Queens,NY,11357,40.7806191184,-73.802039011533,ChIJ_eytEI-KwokRgdGe285gQBI
OLIVE TREE CAFE & COMEDY CELLAR,117 MAC DOUGAL STREET,Manhattan,NY,10012,40.730129780372,-74.000386066263,ChIJmzPYgJFZwokRUX8NSi3feBk
MANDUCATIS,1327 JACKSON AVENUE,Queens,NY,11101,40.744468029044,-73.948905538843,ChIJEz0N7yVZwokRKrOYsmXkKSY
WEST BANK CAFE,407 WEST   42 STREET,Manhattan,NY,10036,40.758609222912,-73.993051434231,ChIJByRB9FJYwokR7fTtYijEqGE
LA BARAKA RESTAURANT,255-09 NORTHERN BOULEVARD,Queens,NY,11362,40.7720339863,-73.734326533439,ChIJmf02Qe6JwokRSuKrC18NEQU
LIBERMAN'S LUNCHEONETTE,4801 16 AVENUE,Brooklyn,NY,11204,40.631503551354,-73.985008985692,ChIJeyOpjilFwokRcOe1YiPD_iU
ZAFI'S LUNCHEONETTE,500 GRAND STREET,Manhattan,NY,10002,40.714738553101,-73.982605794428,ChIJzYPwsSpawokRJAJtH0MuXfM
LA PALINA RESTAURANT,159 AVENUE O,Brooklyn,NY,11204,40.610776716763,-73.978869293745,ChIJW0BC3-NEwokRCcguDYS9UbI
MARINER INN,3501 AVENUE S,Brooklyn,NY,11234,40.609339406683,-73.9319776615,ChIJeVGvJ15DwokRVs0b55GcWvw
NORTH SHORE DINER,19652 NORTHERN BLVD,Queens,NY,11358,40.757847279125,-73.784564229619,ChIJkZVDctBhwokRzCch6yQvmsY
GREEN HOUSE CAFE,7717 THIRD AVENUE,Brooklyn,NY,11209,40.629821191692,-74.028450143173,ChIJhReR7FhFwokR8bS-WjMXqk0
MCDONALD'S,3660 EAST TREMONT AVENUE,Bronx,NY,10465,40.827578059403,-73.823272077449,ChIJb3v9xT6LwokRbhaa8NVdPOo
LA RIPAILLE RESTAURANT,605 HUDSON STREET,Manhattan,NY,10014,40.73735385778,-74.005741105387,ChIJ68rGN5VZwokR6cCbimuf1uY
MARINA CAFE,154 MANSION AVENUE,Staten Island,NY,10308,40.544300925933,-74.140905861928,ChIJ0VbzEMxLwokRXwhbOPUmO14
DON FILIPPO RESTAURANT,1133 LEXINGTON AVENUE,Manhattan,NY,10075,40.774642508226,-73.959107283102,ChIJ5Qe7Jb5YwokRCxZzLKCneyQ
BURGER KING,9283 QUEENS BOULEVARD,Queens,NY,11374,40.731773141489,-73.86656564973,ChIJXWFpxElewokR-1jMXgfL8rM
OMONIA CAFE,3220 BROADWAY,Queens,NY,11106,40.761477481586,-73.924360228878,ChIJfyz9BjpfwokR3brlHg5PscA
"MURALS ON 54, RANDOLPH'S",65 WEST   54 STREET,Manhattan,NY,10019,40.761865222515,-73.977330319535,ChIJFVWAmflYwokRdnX3IwqbR20
VETERANS OF FOREIGN WARS POST #107 CANTEEN,2414 GERRITSEN AVENUE,Brooklyn,NY,11229,40.598101670847,-73.931013300703,ChIJ84HElXxDwokRFhUC8X-xK1w
TROPICAL HOUSE BAKING CO.,267 SCHENECTADY AVENUE,Brooklyn,NY,11213,40.669434759348,-73.933830286475,ChIJYzVu0H9cwokRsqEK1N7Mcfg
BURGER KING,15405 ROCKAWAY BOULEVARD,Queens,NY,11434,40.667935318774,-73.780984279643,ChIJe6wP68JmwokRaaR36lpXgKs
YANKEE JZ PIZZA,1599 WESTCHESTER AVENUE,Bronx,NY,10472,40.829178325164,-73.87570682252,ChIJ3wNnje_0wokRUNuFVkXL1NE
RACQUET & TENNIS CLUB,370 PARK AVENUE,Manhattan,NY,10022,40.758798345762,-73.972812079305,ChIJPSIyYvtYwokRjk8biwa59Ug
ASTRO RESTAURANT,101 WEST   55 STREET,Manhattan,NY,10019,40.76313625147,-73.978398412976,ChIJTcpq6_lYwokR4lHaYlpg-Jk
GOLDEN DOVE DINER,3281 RICHMOND AVENUE,Staten Island,NY,10312,40.559012753113,-74.169439701203,ChIJe1xfzqBLwokRscB_tQj2bqA
KORNER PIZZERIA,226 CHURCH AVENUE,Brooklyn,NY,11218,40.643376352202,-73.978026547796,ChIJ-0hC1yhbwokRZx27JHCZlZY
VILLA BERULIA,107 EAST   34 STREET,Manhattan,NY,10016,40.746865746167,-73.980821742973,ChIJe14KpQdZwokReRadKUwTRSM
VICTOR'S CAFE,236 WEST   52 STREET,Manhattan,NY,10019,40.762961484036,-73.983853000701,ChIJv6RszFdYwokR-moeAHqLAhM
PETE'S PIZZERIA & RESTAURANT,7522 3 AVENUE,Brooklyn,NY,11209,40.631240382668,-74.027888724775,ChIJYQmOXFhFwokRfjbnjkTqyfw
KEENS STEAKHOUSE,72 WEST   36 STREET,Manhattan,NY,10018,40.750753089864,-73.986108122854,ChIJ5804KalZwokRzGll2Rm7nag
BuBo,515 3 AVENUE,Manhattan,NY,10016,40.746047275767,-73.977869849068,ChIJE5h5cQZZwokR-Gi2BfLvPvg
IL MULINO,86 WEST    3 STREET,Manhattan,NY,10012,40.729844320711,-73.998960872846,ChIJhWUUopFZwokR-uGjV8FCLNQ
MCDONALD'S,5804 CLARENDON ROAD,Brooklyn,NY,11203,40.644916150063,-73.921588478833,ChIJyZQU_LxcwokRhPghQC1ZjhQ
THE MALT HOUSE,206 THOMPSON STREET,Manhattan,NY,10012,40.728787588835,-73.999350555867,ChIJ__Ry6ZFZwokRge73vP_ViGI
SHUN LEE,37 WEST   65 STREET,Manhattan,NY,10023,40.772273899388,-73.980363099092,ChIJe_-5BfVYwokRvcY01Ulz7e8
TONY'S PIER RESTAURANT,1 CITY ISLAND AVENUE,Bronx,NY,10464,40.837658970329,-73.782920637128,ChIJBdUigIWLwokRJvFIxrTgr8s
ELIO'S,1621 SECOND AVENUE,Manhattan,NY,10028,40.776704064109,-73.952606878844,ChIJtcTkkrtYwokRav-iyD-cV_Y
KASTELI II,372 8 AVENUE,Manhattan,NY,10001,40.748805077672,-73.995910876922,
THE MOLLY WEE PUB,402 8 AVENUE,Manhattan,NY,10001,40.749754738358,-73.995221468286,ChIJsXEP1LFZwokRneSkypl94JQ
EL CARIBE,5945 STRICKLAND AVENUE,Brooklyn,NY,11234,40.608652307729,-73.914280560816,ChIJYWS5skFDwokR_r1vY5ReGHM
OMEN AZEN,113 THOMPSON STREET,Manhattan,NY,10012,40.725823228456,-74.001850833128,ChIJ7d_Zy41ZwokRJ8-pmekV39A
CASA BELLA,127 MULBERRY STREET,Manhattan,NY,10013,40.717995150669,-73.998037554562,ChIJ0Qva04lZwokRblbYm8Irh3E
CHEZ NAPOLEON,365 WEST   50 STREET,Manhattan,NY,10019,40.763203559325,-73.988271452718,ChIJWSHlKVdYwokR7oxPQdfuWeI
TURKEY'S NEST TAVERN,94 BEDFORD AVENUE,Brooklyn,NY,11249,40.720516956735,-73.954851215736,ChIJC4LOuFxZwokR0aI7tb5Jyw8
LA VILLA DE PIZZA & RESTAURANT,8207 153 AVENUE,Queens,NY,11414,40.666089208129,-73.8519582509,ChIJbZkoe4VdwokRJG6hyrpazSw
OZONE PIZZERIA,9615 LIBERTY AVENUE,Queens,NY,11417,40.680681768141,-73.842638180373,ChIJKfotBvZdwokRO7J3GFqBQso
ARTURO'S,1617 YORK AVENUE,Manhattan,NY,10028,40.775452968053,-73.947477164518,ChIJTbZrCLpYwokRx16ZzD7mOJo
GENE'S RESTURANT,73 WEST   11 STREET,Manhattan,NY,10011,40.73493582977,-73.997185481415,ChIJ6-ZnU5ZZwokRLq6GRJiQLNc
VILLA FIORITA,7720 18 AVENUE,Brooklyn,NY,11214,40.612046726678,-73.997345555177,ChIJq6QuHRFFwokRSESp64jqQOg
FONTANA FAMOUS PIZZA & GYRO,20002 NORTHERN BOULEVARD,Queens,NY,11361,40.757715535717,-73.783109985737,ChIJteCcddBhwokR0x_Pn5jFoUY
LUSARDI'S RESTAURANT,1494 SECOND AVENUE,Manhattan,NY,10075,40.772505803269,-73.955646225535,ChIJVdduFL9YwokRGn2EFWZDLBs
PORTOFINO,10932 ASCAN AVENUE,Queens,NY,11375,40.718748570733,-73.840293278717,ChIJEXncOZ5gwokReosxDXh9pAI
KING'S ARMS RESTAURANT,500 FOREST AVENUE,Staten Island,NY,10310,40.630436247754,-74.106988972394,ChIJyU00c2xOwokRVgpHdhU6qIM
BLUE NOTE JAZZ,131 WEST    3 STREET,Manhattan,NY,10012,40.730763819064,-74.000793788682,ChIJbfTV15NZwokRSeNM676BEZI
THE WATER CLUB,500 EAST   30 STREET,Manhattan,NY,10016,40.740894192066,-73.972487414864,ChIJ0wFhOQ5ZwokRU8P93msecs4
MARCO POLO RISTORANTE,345 COURT STREET,Brooklyn,NY,11231,40.682282872632,-73.99592218276,ChIJMQaH8VlawokRbgV_LdYg6Yk
MANHATTAN MONSTER,80 GROVE STREET,Manhattan,NY,10014,40.733407004766,-74.002428368437,ChIJHUZodJRZwokR3Mdk_jks8Ss
"TRIPOLI RESTAURANT, SWALLOW CAFE",156 ATLANTIC AVENUE,Brooklyn,NY,11201,40.690303050213,-73.994645190281,ChIJ09yOf09awokRuw8wOSinwrc
PJ BERNSTEIN DELI & RESTAURANT,1215 THIRD AVENUE,Manhattan,NY,10021,40.768613074623,-73.961403469724,ChIJSeZ4ROpYwokRQtjtlj5Phuw
PJ CARNEY'S,906 7 AVENUE,Manhattan,NY,10019,40.765738551729,-73.979884899094,ChIJD81nnvdYwokRbq9qfuo-L-0
JP'S RESTAURANT,703 MINNIEFORD AVENUE,Bronx,NY,10464,40.857251130718,-73.790415470169,ChIJ6WkcE2OMwokRQWEfgUGaGc8
JOHN & JOE PIZZERIA & RESTAURANT,749 LYDIG AVENUE,Bronx,NY,10462,40.854465546464,-73.865892004272,ChIJLc1b4871wokRfsjAm_SYNf0
SUNSET PIZZERIA,645 ROSSVILLE AVENUE,Staten Island,NY,10309,40.54235091781,-74.208236910242,ChIJS8RulQZLwokRjHFUMEU_ZQ8
MCDONALD'S,7002 COOPER AVENUE,Queens,NY,11385,40.701739099289,-73.880832224708,ChIJo7ffj3hewokRPyIioOkR188
JACKSON HOLE,521 THIRD AVENUE,Manhattan,NY,10016,40.746222915383,-73.977739867544,ChIJxy1zcQZZwokRmuPUv0M9GjA
NAPOLI PIZZA,16402 69 AVENUE,Queens,NY,11365,40.733073440304,-73.804753501055,ChIJd9tXEVdgwokR6b17VLGpQhE
VESUVIO RESTAURANT & PIZZA,7303 3 AVENUE,Brooklyn,NY,11209,40.63271448104,-74.027266057226,ChIJ9acCK1hFwokRJjwus2Ai6Z8
JOHNS CAFE & RESTAURANT,823 SECOND AVENUE,Manhattan,NY,10017,40.751027572144,-73.971339086977,ChIJ4cvV1QJZwokRmse8VJzP1aE
CAFE LUXEMBOURG,200 WEST   70 STREET,Manhattan,NY,10023,40.777464653904,-73.98301540541,ChIJXQP8fYpYwokRgkepJvnLNlc
"DUNKIN', BASKIN ROBBINS",15367 HORACE HARDING EXPRESSWAY,Queens,NY,11367,40.739396352692,-73.815741155917,ChIJjXsHHl1gwokRdRZxhYF-dU0
NARITA JAPANESE RESTAURANT,10708 70 ROAD,Queens,NY,11375,40.720981864901,-73.845612730765,ChIJt0c70iZewokR0xgP6kML6Yk
CUCHIFRITO,168 EAST  116 STREET,Manhattan,NY,10029,40.798286090425,-73.940863923623,ChIJT2lgGwb2wokRQ1y71rEfmZA
IL CANTINORI RESTAURAUNT,32 EAST   10 STREET,Manhattan,NY,10003,40.732402237364,-73.99307221868,ChIJH9mMjZlZwokRuIt5KXWOZMw
ANDREW'S NYC DINER,463 7 AVENUE,Manhattan,NY,10018,40.751741613774,-73.990056458411,ChIJRdi1GaxZwokR3vmYZ_GDcSM
KOSHER HUT OF BROOKLYN,709 KINGS HIGHWAY,Brooklyn,NY,11223,40.606197891882,-73.96543762922,ChIJk8uF1e1EwokRZ6MDVMmqdAg
TERRA BLUES,149 BLEEKER STREET,Manhattan,NY,10012,40.728268828151,-73.999357776932,ChIJ5ais55FZwokR78b9lEBgVz4
FLAMINGO,8512 ROOSEVELT AVENUE,Queens,NY,11372,40.747933648158,-73.880915291092,
MONTE'S TRATTORIA,97 MACDOUGAL STREET,Manhattan,NY,10012,40.72944358561,-74.00096335165,ChIJORz6I5JZwokRJG6OtuIZLiU
LONDON LENNIES,6388 WOODHAVEN BOULEVARD,Queens,NY,11374,40.72219742993,-73.86724509918,ChIJc0MR70BewokRTMXd_MHdgm8
COOPER TOWN DINER,339 1 AVENUE,Manhattan,NY,10003,40.734752957401,-73.979948414333,ChIJDwc3K3VZwokR8VxH2-0RvYg
MEZZALUNA,1295 THIRD AVENUE,Manhattan,NY,10021,40.771283054919,-73.959466777028,ChIJLcHEA8BYwokRzRI1K_H7GE0
RESTUARANT NIPPON,155 EAST   52 STREET,Manhattan,NY,10022,40.757510580115,-73.970881478995,ChIJ88QfReNYwokRDwlvNwkIFVQ
O'HARA'S,120 CEDAR STREET,Manhattan,NY,10006,40.709636641851,-74.012711005921,ChIJueUCrBBawokRiw9LMJFm0_o
E.A.T. CAFE,1064 MADISON AVENUE,Manhattan,NY,10028,40.777371576876,-73.961365877573,ChIJ8aQDcJZYwokRyPVIfqjkazY
CLUB 101,101 PARK AVENUE,Manhattan,NY,10178,40.750985218449,-73.978485380664,ChIJAZdBagFZwokR2ZfkjtBb7HU
CARLOS PIZZA,7402 METROPOLITAN AVENUE,Queens,NY,11379,40.7128252087,-73.878193530685,ChIJadLodmVewokRmyyNlLKVIuY
THE BITTER END,147 BLEECKER STREET,Manhattan,NY,10012,40.728219421756,-73.999256753632,ChIJ3fYA6JFZwokREvGpQiCDe-4
ARRIBA ARRIBA,762 9 AVENUE,Manhattan,NY,10019,40.76419717623,-73.988415675015,ChIJzVOUMFdYwokRy8Nskj-Mb34
GEIDO RESTAURANT,331 FLATBUSH AVENUE,Brooklyn,NY,11217,40.677792033642,-73.972899309836,ChIJaxKr7ahbwokRcuzidxRVoPo
BARNEY GREENGRASS,541 AMSTERDAM AVENUE,Manhattan,NY,10024,40.787824607234,-73.974894696743,ChIJZ996e4RYwokR2kEubU7CVhA
ANNAM BRAHAM RESTAURANT,8443 164 STREET,Queens,NY,11432,40.713358108981,-73.801774217799,ChIJCbVgyeZgwokRKyrUxWU47Bs
MONTERO BAR & GRILL,73 ATLANTIC AVENUE,Brooklyn,NY,11201,40.691247359648,-73.997987861076,ChIJe6d6TERawokRw5jEzIqswwg
PISA PIZZERIA,6568 MYRTLE AVENUE,Queens,NY,11385,40.70131289975,-73.888255235301,ChIJzdV-RdVdwokRta1kl5m_MSs
PETE'S CLAM STOP,1320 SURF AVENUE,Brooklyn,NY,11224,40.575528666625,-73.981850250554,ChIJb8HAODVEwokRnY7BCFWIuh0
BURRITO LOCO,166 WEST    4 STREET,Manhattan,NY,10014,40.732012681351,-74.001403589122,ChIJx-Dt6JNZwokRhs8twLKl1wM
FIT CAFETERIA (BUILDING A ),227 WEST   27 STREET,Manhattan,NY,10001,40.747119757708,-73.99499068076,ChIJhcRxEwBZwokRqHOjM6v4JZw
SMILING PIZZA,323 7 AVENUE,Brooklyn,NY,11215,40.667061653915,-73.981414315334,ChIJN64zwAJbwokRoBDiIcNUZ8g
CLARK'S RESTAURANT,80 CLARK STREET,Brooklyn,NY,11201,40.697510750407,-73.993259780796,ChIJ4wBp3jdawokRZf_Uh0IhaXY
MISS LILY'S 7A,109 AVENUE A,Manhattan,NY,10009,40.725962055374,-73.983609449249,ChIJz8asT51ZwokRhNF8JQzaLqQ
DYKER BEACH GOLF (GRILL ROOM),1020 86th Street,Brooklyn,NY,11228,40.617715737743,-74.019994680554,ChIJ2wABZ29FwokRrVIrlcnIPWU
TOMMY'S PIZZA,4033 EAST TREMONT AVENUE,Bronx,NY,10465,40.819559910671,-73.817530764489,ChIJvWLFEBiLwokRMtepYyDnhh8
PARNELL'S PUB,350 EAST   53 STREET,Manhattan,NY,10022,40.756238401752,-73.965958657687,ChIJ3-QbYuFYwokRtlBxHvtvp_s
COBBLESTONE PUB,11718 QUEENS BOULEVARD,Queens,NY,11375,40.715311990803,-73.832509783357,ChIJsw9jWJhgwokR7ASQwGoz16Y
PIZZA WAGON,8606 5 AVENUE,Brooklyn,NY,11209,40.621365020169,-74.026328434867,ChIJg5He82BFwokRKnJ0UVMqRCc
RUSSIAN TURKISH BATHS,268 EAST   10 STREET,Manhattan,NY,10009,40.728344489977,-73.983453717052,ChIJT6uag51ZwokRBV2vUMM3FWQ
IL TOSCANO RISTORANTE,4205 235 STREET,Queens,NY,11363,40.768237135085,-73.748576694618,ChIJ0TU6fQKKwokR3fMksF0h2kI
GABY'S PIZZA,20423 HILLSIDE AVENUE,Queens,NY,11423,40.720424809649,-73.760890061607,ChIJ1U4Yc3dhwokRARHDgoiFe8g
VERDI RESTAURANT,14958 CROSS ISLAND PARKWAY,Queens,NY,11357,40.787035101942,-73.814427945733,ChIJfRf6QZSKwokRQE6mJCcg9pg
LE BERNARDIN,155 WEST   51 STREET,Manhattan,NY,10019,40.7613280577,-73.981875231905,ChIJV7QQ6kdZwokRax4615zpSGU
BRANDY'S PIANO BAR,235 EAST   84 STREET,Manhattan,NY,10028,40.777135582011,-73.954061663781,ChIJ0d55irtYwokRL3L_psDROgY
REAL MADRID RESTAURANT,2073 FOREST AVENUE,Staten Island,NY,10303,40.626289740667,-74.158367858223,ChIJmemdigFNwokRH292iYWdp9g
CANLON'S RESTAURANT,1825 NORTH RAILROAD AVENUE,Staten Island,NY,10306,40.565128564811,-74.126704510879,ChIJi8yV_-JLwokRjQFcQceii04
LAST STOP (AI & JI) RESTAURANT,5977 BROADWAY,Bronx,NY,10471,40.889699806922,-73.898162016423,ChIJq1rdt2LzwokRvnU7AKI34VE
RUSSIAN SAMOVAR,256 WEST   52 STREET,Manhattan,NY,10019,40.763104258677,-73.984192295536,ChIJSeT4tldYwokRxanaa6CWf0U
MCDONALD'S,819 PENNSYLVANIA AVENUE,Brooklyn,NY,11207,40.657669815042,-73.889932475951,ChIJtxzrCf5cwokRXX99AoBIzt0
LA MELA RESTAURANT,167 MULBERRY STREET,Manhattan,NY,10013,40.719910978144,-73.997077892142,ChIJEw1TVohZwokRA2vBXEexlVY
FRIEND OF A FARMER,77 IRVING PLACE,Manhattan,NY,10003,40.736900338471,-73.986648683307,ChIJb85ryKFZwokRaCJqC07E0G0
DREAM PIZZA,37-67 JUNCTION BOULEVARD,Queens,NY,11368,40.750340064517,-73.870112251068,ChIJHSL4v7lfwokRvgLCQt_ZpYE
VESELKA RESTAURANT,144 SECOND AVENUE,Manhattan,NY,10003,40.729086067436,-73.987303310071,ChIJlxDiXJxZwokRp4HHbeYqXXU
WHITE CASTLE,900 PENNSYLVANIA AVENUE,Brooklyn,NY,11207,40.655854225219,-73.888598374474,ChIJA8A_iP1cwokRG3EJBucrurQ
J.R. PIZZERIA,1916 KINGS HIGHWAY,Brooklyn,NY,11229,40.6103551181,-73.954385766547,ChIJ5WkK05VEwokRex7KpyeEbYU
CHEZ JOSEPHINE,414 WEST   42 STREET,Manhattan,NY,10036,40.758705305754,-73.993325757553,ChIJ1x3vjFJYwokRl8Bs_D0gYlA
VICTORY SWEET SHOP,21-69 STEINWAY STREET,Queens,NY,11105,40.773507282889,-73.9052363637,ChIJDw8NW29fwokR8ScUOttjQkc
CAPPUCCINO CAFE,7721 3 AVENUE,Brooklyn,NY,11209,40.629799231638,-74.028457339077,ChIJg3VB61hFwokR7YsFSzQd--o
PANGEA,178 2 AVENUE,Manhattan,NY,10003,40.730576349708,-73.986216980836,ChIJnyFa051ZwokRv7V1iRyOZss
AUTOMATIC SLIM'S,733 WASHINGTON STREET,Manhattan,NY,10014,40.736299712402,-74.008292175149,ChIJm3QDH-tZwokRPSaMw09Zxv4
LATTANZI,361 WEST   46 STREET,Manhattan,NY,10036,40.760486373348,-73.989560612596,ChIJBQop4lNYwokR5TMewzzDyrs
PIZZA GARDEN,17101 NORTHERN BOULEVARD,Queens,NY,11358,40.758048746394,-73.795670390096,ChIJD336WS1gwokR-59wtTy8JwQ
ISLAND,1305 MADISON AVENUE,Manhattan,NY,10128,40.784953325549,-73.95580762231,ChIJ35EVxKNYwokR-z9dylLdd_4
EASTWOOD MANOR,3371 EASTCHESTER ROAD,Bronx,NY,10469,40.876469925673,-73.846067533274,ChIJM4lWSjTzwokROr-gFotnxro
"SALUMERIA BEILLESE, BIRICCHINO REST",378 8 AVENUE,Manhattan,NY,10001,40.748947801474,-73.995806203675,ChIJqeJvMLBZwokR21aPDq02EMc
PARK PLAZA RESTAURANT,220 CADMAN PLAZA WEST,Brooklyn,NY,11201,40.697845490794,-73.991434937772,ChIJb7MiMjZawokRwrNLDOXf_OY
SAM'S PLACE,132 EAST   39 STREET,Manhattan,NY,10016,40.749428690995,-73.977201029562,ChIJ1XtiVAFZwokRhRSA2bnhJs8
RAY'S PIZZA,829-831 7 AVENUE,Manhattan,NY,10019,40.763246611351,-73.981672553572,ChIJ8164qwFZwokRhplkmhvq1uE
HUNTER'S STEAK & ALE HOUSE,9404 FOURTH AVENUE,Brooklyn,NY,11209,40.616568737775,-74.030904594135,ChIJZ4dtz4lPwokRMY7NhFM0Go4
LJUBO'S PIZZERIA,15 WESTCHESTER SQUARE,Bronx,NY,10461,40.840433326313,-73.843314165136,ChIJrdNs3rL0wokR3iiLWc1_n9k
PRIMOLA RESTAURANT,1226 SECOND AVENUE,Manhattan,NY,10065,40.763930686163,-73.96190436458,ChIJp72RT-hYwokRfKi2m0hLl-o
ARIRANG HIBACHI STEAK HOUSE,23 NELSON AVENUE,Staten Island,NY,10308,40.54937182635,-74.150682390109,ChIJWW1zCbdLwokRDLkvEkP8w68
COUNTRY DONUTS,4357 AMBOY ROAD,Staten Island,NY,10312,40.545221672259,-74.160779999935,ChIJdZxZoK1LwokRoKSwCQ6-puM
JACK'S FIRE DEPARTMENT,3946 SKILLMAN AVENUE,Queens,NY,11104,40.747270498043,-73.924206797203,ChIJA2mw-ydfwokRA6AHCs4B6Ns
VENICE PIZZA,1539 UNIONPORT ROAD,Bronx,NY,10462,40.836762474175,-73.857185789193,ChIJfTqUkbj0wokRf01gOgYizIU
PIZZA PLUS,359 SEVENTH AVENUE,Brooklyn,NY,11215,40.665958399841,-73.982341009055,ChIJQ6IGTR1bwokRFhPolV06x5o
TASTY'S,5802 MYRTLE AVENUE,Queens,NY,11385,40.700476771433,-73.901340978825,ChIJX5c4IyZcwokRuOczPGS_VFI
ERIN'S ISLE,15403 CROSS ISLAND PARKWAY,Queens,NY,11357,40.786870463695,-73.807783814748,ChIJMVyhipKKwokRXQ1-ojD5NQE
WESTSIDE RESTAURANT,2020 BROADWAY,Manhattan,NY,10023,40.776410532869,-73.982123853828,ChIJB1H-kopYwokRbuCvsBUUkaM
SAL AND CARMINE PIZZA,2671 BROADWAY,Manhattan,NY,10025,40.798225819632,-73.969184113056,ChIJs4RhwyX2wokRZ_3DWlaukaE
CUBBYHOLE,281 WEST   12 STREET,Manhattan,NY,10014,40.737565293294,-74.003550764107,ChIJAc17d5VZwokRFRZJneeCMww
WHITE CASTLE,21317 NORTHERN BOULEVARD,Queens,NY,11361,40.760135659759,-73.770031208298,ChIJ53u36uBhwokRulnvCdVgFEk
PERIYALI,35 WEST   20 STREET,Manhattan,NY,10011,40.740205545887,-73.992205329697,ChIJy8unbqNZwokRughjUhFL76o
CLUB METROPOLITAN,146 WEST   57 STREET,Manhattan,NY,10019,40.765145561934,-73.979199178828,ChIJv-dTb_dYwokRKbBpMiYUC9g
FRANK'S SOUP BOWL,3580 BRONXWOOD AVENUE,Bronx,NY,10469,40.877302301449,-73.85949224606,ChIJQYUBzjjzwokRchh08EBTUyA
COPPER KETTLE,50-24 SKILLMAN AVENUE,Queens,NY,11377,40.746088544574,-73.91400199377,ChIJAUqAbXBfwokRTscd_GesP4E
SAN REMO PIZZA RESTAURANT,5601 MYRTLE AVENUE,Queens,NY,11385,40.700134942714,-73.906120057404,ChIJW8HhsSZcwokRyqRIzsW0wRQ
ARNO RISTORANTE,141 WEST   38 STREET,Manhattan,NY,10018,40.753072597163,-73.987728232469,ChIJV0bfnqtZwokRo0b29CRqsS8
WHITE CASTLE,3101 ATLANTIC AVENUE,Brooklyn,NY,11208,40.67900429349,-73.880999193011,ChIJfaaBULZdwokRKAUlpeD_7gk
LUPE'S EAST L.A. KITCHEN,110 AVENUE OF THE AMERICAS,Manhattan,NY,10013,40.723679483636,-74.004718930915,ChIJz_UpnYxZwokRbKfKWkGo9MU
DUE,1396 THIRD AVENUE,Manhattan,NY,10075,40.774562177627,-73.957099887375,ChIJPxCuXL5YwokR4a1zLHSjau8
LA CASA DEL POLLO RESTAURANT,8707 ROOSEVELT AVENUE,Queens,NY,11372,40.748143118909,-73.879121203101,ChIJzTJ9BwBfwokRH5ER1et66_4
WHITE CASTLE,1677 BRUCKNER BOULEVARD,Bronx,NY,10472,40.824814182929,-73.870732329053,ChIJV6eKheb0wokRmIOC9xz7Th0
DA UMBERTO RESTAURANT,107 WEST   17 STREET,Manhattan,NY,10011,40.739483866377,-73.995947537239,ChIJPbpC37xZwokRIsT-jIuHUr8
WHITE CASTLE,550 EAST FORDHAM ROAD,Bronx,NY,10458,40.859181358124,-73.886618831102,ChIJk1_WNoD0wokRS4gNe8JTosU
JIMMY MAX RESTAURANT,280 WATCHOGUE ROAD,Staten Island,NY,10314,40.616137572684,-74.138702432478,ChIJIZU6qzNMwokRKcHUE6OPHBw
PECULIAR PUB,145 BLEECKER STREET,Manhattan,NY,10012,40.728170015273,-73.999155730482,ChIJA31e3ZFZwokR_4EFUNEvAQ0
ARTURO'S PIZZA,5189A BROADWAY,Bronx,NY,10463,40.874377748672,-73.910121843831,ChIJO_VgYrDzwokRCiPXuCz-L8s
TRATTORIA DELL'ARTE,900 7 AVENUE,Manhattan,NY,10106,40.765414711283,-73.980119648247,ChIJNaoHnvdYwokRFxwsSD4urZg
GREEN PAVILION RESTAURANT & SPORTS LOUNGE,4307 18 AVENUE,Brooklyn,NY,11218,40.631158973819,-73.976258045427,ChIJ_WcjoclFwokRq59HoZKBeqc
WESTWAY DINER,614 9 AVENUE,Manhattan,NY,10036,40.759479232348,-73.99184931572,ChIJa9pfrVNYwokRVCG3VV9vkiM
SOB'S,200 VARICK STREET,Manhattan,NY,10014,40.728340069398,-74.005343445984,ChIJxTvKX41ZwokRT53xgEZGScI
WALKER'S RESTAURANT,16 NORTH MOORE STREET,Manhattan,NY,10013,40.719790027412,-74.007074374166,ChIJg7lHTvVZwokRh0iWDed8BKw
THE PIZZA PLACE,1665 METROPOLITAN AVENUE,Bronx,NY,10462,40.840465776277,-73.855508090564,ChIJKR1OJ7r0wokRQ0mWPMo4LQ4
AMNON KOSHER PIZZA,4814 13 AVENUE,Brooklyn,NY,11219,40.635440249608,-73.991695185257,ChIJi9IXAS1FwokRzW4igeHSUkg
WHITE CASTLE,3663 BOSTON ROAD,Bronx,NY,10466,40.880015785102,-73.841781248013,ChIJN4d-1MyMwokRA9UgtRiki7I
COWGIRL,519 HUDSON STREET,Manhattan,NY,10014,40.733840531071,-74.006285654455,ChIJLefnVOtZwokRN2j6XKEj8EU
FAMOUS FAMIGLIA PIZZERIA,2859 BROADWAY,Manhattan,NY,10025,40.804776710519,-73.966258832618,ChIJ21OMnjv2wokRiEWJcYe98nw
DIVE BAR,732 AMSTERDAM AVENUE,Manhattan,NY,10025,40.793831831,-73.970536878988,ChIJK8wm5yf2wokR9QqGu_Lodr0
GLENDALE PIZZA,6827 MYRTLE AVENUE,Queens,NY,11385,40.701719975469,-73.883591274113,ChIJnWxUUH9ewokRs17t6FEXRIs
THE CORNELL CENTER OF NEW YORK,6 EAST   44 STREET,Manhattan,NY,10017,40.754597515576,-73.979538161979,ChIJ7aZA2AFZwokR9WJFI30Vz-w
NECTAR RESTAURANT,1090 MADISON AVENUE,Manhattan,NY,10028,40.778128941659,-73.960812998275,ChIJYSsuP5ZYwokRSjn-MBTQnV0
2A / BERLIN / OLD FLINGS,25 AVENUE A,Manhattan,NY,10009,40.722901937131,-73.985836157598,ChIJg-zrrINZwokRyU1EWWoOylk
SETTE MEZZO,969 LEXINGTON AVENUE,Manhattan,NY,10021,40.769327233213,-73.962987944355,ChIJEYhtqetYwokRlQBCBZlxlwo
YAMA JAPANESE RESTAURANT,122 EAST   17 STREET,Manhattan,NY,10003,40.736000175613,-73.987720563646,ChIJ0yHhe4BZwokRs5lITzFU-Pc
CHADWICK'S,8822 3 AVENUE,Brooklyn,NY,11209,40.621835752312,-74.031735552736,ChIJ14EA8YpPwokRVLYiltmUulw
EL CASTILLO DE JAGUA RESTAURANT,113 RIVINGTON STREET,Manhattan,NY,10002,40.719896643727,-73.987810123026,ChIJB1mzOIFZwokRkElevjezXJw
SAKEBAR DECIBEL,240 EAST    9 STREET,Manhattan,NY,10003,40.729555512316,-73.988143899365,ChIJ-3ZSb5xZwokRDb2PQKNwwbU
SACCO PIZZA,819 9 AVENUE,Manhattan,NY,10019,40.76606072378,-73.987079631127,ChIJCc0Xw1lYwokRfo0_lGxx0RI
DA TOMMASO RISTORANTE,903 EIGHTH AVENUE,Manhattan,NY,10019,40.76455078286,-73.984462698478,ChIJO2PI8ldYwokRtCEEPzjn4Ro
TOM'S RESTAURANT,2880 BROADWAY,Manhattan,NY,10025,40.805490185201,-73.965720252196,ChIJLyERijv2wokR8G_K-v8FXX4
TOWNHOUSE OF NY,236 EAST   58 STREET,Manhattan,NY,10022,40.760503792019,-73.966075591005,ChIJq2491OVYwokRJCKqoN3hZIY
DALLAS BBQ,1265 3 AVENUE,Manhattan,NY,10021,40.770262268592,-73.960218338739,ChIJOZSQmepYwokRGyoFV_YPkbU
VILLA MONTE RESTAURANT & PIZZERIA,7001 AMBOY ROAD,Staten Island,NY,10307,40.515842237008,-74.233502136328,ChIJq6rqPFm1w4kRKqEtEpUEERQ
ROSA'S PIZZA,5526 69 STREET,Queens,NY,11378,40.727438952257,-73.895481281295,ChIJ370U7vNewokRyhQeOoqdpmA
GIANDO,412 KENT AVENUE,Brooklyn,NY,11249,40.710332945046,-73.968532355136,ChIJx6POq9lbwokR2Fm47S6DojQ
CHAMP GOURMET,30 BROAD STREET,Manhattan,NY,10004,40.706172894713,-74.011249591231,ChIJ8eUFKhdawokRTEqY7E_NsEo
AUSTIN HOUSE,7204 AUSTIN STREET,Queens,NY,11375,40.719215300547,-73.842362866007,
WHARF BAR AND GRILL,416 BEACH  116 STREET,Queens,NY,11694,40.581635473579,-73.838231988773,ChIJGfuOwytowokR3Nm3TBkmmfQ
5 BURRO CAFE,7205 AUSTIN STREET,Queens,NY,11375,40.719240013333,-73.842370022351,ChIJVykOpCBewokRVqNJ7N9mo4M
PAPAZZIO RESTAURANT,3938 BELL BOULEVARD,Queens,NY,11361,40.764865410547,-73.771664582884,ChIJd2gn_99hwokRjFzrReZ66uQ
VILLA BARONE MANOR,737 THROGS NECK EXPRESSWAY,Bronx,NY,10465,40.828831526872,-73.819178280094,ChIJpeeKvz-LwokRa00Vu77dOJE
THE FAMOUS JIMBO'S HAMBURGER PALACE,1345 AMSTERDAM AVENUE,Manhattan,NY,10027,40.813704645851,-73.956012441278,ChIJUXZxsGv2wokRuHbjG_4-oPs
HAN BAT RESTAURANT,53 WEST   35 STREET,Manhattan,NY,10001,40.749869251359,-73.98589897606,ChIJR751tVNu4oYRGQbCiV0obhs
DENNIS' PLACE,1701 PITKIN AVENUE,Brooklyn,NY,11212,40.669742690506,-73.910362614196,ChIJcYwBb15cwokRxEyG7Go4r-U
WHITE CASTLE,11211 SPRINGFIELD BOULEVARD,Queens,NY,11429,40.705386835633,-73.739768884282,ChIJIRkNedxjwokRlBvH0hwZcGQ
CAFE LUNA,1300 HYLAN BOULEVARD,Staten Island,NY,10305,40.596586329156,-74.085574258833,ChIJ91OIL-ROwokRWIhEdTkh8SQ
MIRACALI BAKERY II,7604 ROOSEVELT AVENUE,Queens,NY,11372,40.747039121901,-73.889408916451,ChIJFfBdUQdfwokREwgcANfT5ko
KABAB CAFE,2512 STEINWAY STREET,Queens,NY,11103,40.767578504673,-73.912003004071,ChIJR3kMeWpfwokRhQMUqlJb9jE
LUKE'S BAR & GRILL,1394 THIRD AVENUE,Manhattan,NY,10075,40.774501809212,-73.957143252533,ChIJ8cZGQ75YwokREig1SG7_h68
A & S PIZZERIA,87 STUYVESANT PLACE,Staten Island,NY,10301,40.643821556891,-74.077567031421,ChIJbd4ktyxOwokRK-JBh-eJrLk
BELAIRE CAFE,525 EAST   71 STREET,Manhattan,NY,10021,40.765956061949,-73.953740890553,ChIJESY7p8ZYwokRchm-Jvb1Ng4
LAZZARA'S PIZZA CAFE & RESTAURANT,221 WEST   38 STREET,Manhattan,NY,10018,40.753866018844,-73.989612185526,ChIJASwLqU9ZwokRAoIgy6k2RgY
LITTLE PIE COMPANY,424 WEST   43 STREET,Manhattan,NY,10036,40.759520489956,-73.993170458707,ChIJlwKiXVJYwokRLuQRX4XQboI
MALACHY'S,103 WEST   72 STREET,Manhattan,NY,10023,40.777488686443,-73.978967835956,ChIJj3Hhu4tYwokRWfeMAXCexus
GROTTA AZZURRA PIZZERIA,8505 21 AVENUE,Brooklyn,NY,11214,40.603757417008,-73.995534462223,ChIJf-rmUg9FwokRGk2hH0taSbg
SYBIL'S BAKERY,132-17 LIBERTY AVENUE,Queens,NY,11419,40.69068738245,-73.813918243139,ChIJr1C_tjRnwokRFc9We8WSkpk
LINA RESTAURANT,500 WEST  207 STREET,Manhattan,NY,10034,40.864459392694,-73.918974987265,ChIJ50OCI_v1wokRTj1fTZzahXE
BAR ASSOCIATION OF THE CITY OF NY KITCHEN,42 WEST   44 STREET,Manhattan,NY,10036,40.75536910476,-73.981367924519,ChIJg-B-5f9YwokRY5SYcxSmF18
BAY RIDGE MANOR CATERING,476 76 STREET,Brooklyn,NY,11209,40.629119608277,-74.023701597531,ChIJNYBPdPZFwokRqPjPgo4wRmU
VACCARO'S PIZZERIA & TRATTORIA,8802 LITTLE NECK PARKWAY,Queens,NY,11001,40.72788991617,-73.71055695737,ChIJXzrzl6pjwokRv0Hwdwewaew
PEKING BBQ,5811 WOODSIDE AVENUE,Queens,NY,11377,40.745596679175,-73.906286720173,ChIJiw-uxB1fwokRtlh_kh3F0hs
TEA AND SYMPATHY,108 GREENWICH AVENUE,Manhattan,NY,10011,40.73834758566,-74.002154299955,ChIJxwZIH75ZwokR_A9YYNU38os
MCDONALD'S,85 BRUCKNER BOULEVARD,Bronx,NY,10454,40.806135557598,-73.925797523693,ChIJU_rXXd31wokRS2ybZdor2YY
ORSO,322 WEST   46 STREET,Manhattan,NY,10036,40.760145951846,-73.988802623239,ChIJFVl69lNYwokRpg1Iz_BsYe0
H & H MIDTOWN BAGELS EAST,1551 2 AVENUE,Manhattan,NY,10028,40.7743607364,-73.954316320515,ChIJ67CUx75YwokRv2WzmiltMsY
IHOP,25402 ROCKAWAY BOULEVARD,Queens,NY,11422,40.635568414362,-73.740110656517,ChIJaXi4aNFlwokR75G6I_eOkPI
HILLSIDE SWIMMING CLUB,151 SIGNS ROAD,Staten Island,NY,10314,40.602195568282,-74.168274901915,ChIJmZxp219MwokRKuzMW4YwEh8
LA STRADA RESTAURANT,139 NEW DORP LANE,Staten Island,NY,10306,40.573717541535,-74.115853620231,ChIJRU83BFNJwokRz3CQN9GZykQ
THE NIPPON CLUB,145 WEST   57 STREET,Manhattan,NY,10019,40.764958828413,-73.978708278717,ChIJRX4eavdYwokR8YaJrDKO0vY
SUTTON CAFE RESTAURANT,1026 FIRST AVENUE,Manhattan,NY,10022,40.757774645641,-73.963293985156,ChIJe1A80OZYwokRIT0cNBjK0hg
WALTER'S BAR,389 8 AVENUE,Manhattan,NY,10001,40.749288143591,-73.995586024777,ChIJ_4J9M7BZwokRWbBbGRl-TGY
SALVATORE AND LLOYD'S PIZZA,3850 RICHMOND AVENUE,Staten Island,NY,10312,40.544046273984,-74.165073192272,ChIJv-CCWKtLwokRaxPalwxMz_c
MCDONALD'S,4018 MAIN STREET,Queens,NY,11354,40.759120201969,-73.829933789261,ChIJUf2cUhBgwokRmt5TKcO5fqA
CAFE BELLA VITA,1919 HYLAN BOULEVARD,Staten Island,NY,10305,40.582801559243,-74.096479254883,ChIJa0ukg8hOwokRWNCI0Y4Hfg8
ABSOLUTE BAGELS,2788 BROADWAY,Manhattan,NY,10025,40.80253741452,-73.967712010611,ChIJLW3vMzv2wokRGt6nI1lYw8A
B.Q.E. CAFE BILLIARDS,7002 34 AVENUE,Queens,NY,11372,40.752562292664,-73.896037248187,ChIJq5QT8QVfwokR6bMQ3Rp1xsk
TAL BAGEL,333 EAST   86 STREET,Manhattan,NY,10028,40.777496555404,-73.950840693596,ChIJS7WvVbpYwokRLwaOTl4YhJU
DUNKIN',8777 PARSONS BOULEVARD,Queens,NY,11432,40.7073044511,-73.802538909868,ChIJ06-ttd1gwokRGgmGp1Vewc0
TARTINE,253 WEST   11 STREET,Manhattan,NY,10014,40.736214877103,-74.003294493571,ChIJlTKLqJVZwokRH2TS2qm12hg
LUCYS,135 AVENUE A,Manhattan,NY,10009,40.726930855128,-73.982905665238,ChIJ3WRZYp1ZwokRI0GzAf4kCIQ
BERGEN BEACH CAFE,7112 AVENUE U,Brooklyn,NY,11234,40.620078697405,-73.907043567603,ChIJXeLOsTZDwokRQ_l39cASWTQ
CARINITO,86 UNIVERSITY PLACE,Manhattan,NY,10003,40.733568764342,-73.993104571477,ChIJrUno3L1ZwokRLU0u2lJ-DxI
MOLLY'S,287 3 AVENUE,Manhattan,NY,10010,40.738373862011,-73.983465650986,ChIJpRQgg6BZwokRmUr1ao7HFZc
SCALINATELLA RESTAURANT,201 EAST   61 STREET,Manhattan,NY,10065,40.762663693162,-73.965327244497,ChIJ60pdq-hYwokRAmZ4jR4yc8g
FRIEND'S TAVERN,7811 ROOSEVELT AVENUE,Queens,NY,11372,40.747267768978,-73.887441613737,ChIJTQbElalfwokRPMz8RyVkf3k
RINCON SALVADORENO RESTAURANT,9215 149 STREET,Queens,NY,11435,40.701696341515,-73.80544083303,ChIJETUDw9pgwokRnSRdIe4CSZE
LA NUEVA VICTORIA RESTAURANT,2536 BROADWAY,Manhattan,NY,10025,40.79387345055,-73.97233903102,ChIJt5zmDyj2wokRzdvzO4aq9Es
AMSTERDAM BILLIARDS,85 4 AVENUE,Manhattan,NY,10003,40.731696629805,-73.990275951973,
BUDDY'S BURRITO & TACO BAR,260 COURT STREET,Brooklyn,NY,11231,40.685148360927,-73.994562675802,ChIJd_T6flBawokRaPBsb0kadeI
E.J'S LUNCHEONETTE,1271 THIRD AVENUE,Manhattan,NY,10021,40.770566858667,-73.959994317765,ChIJm8GloepYwokRKQQXHlt9X9w
COURT SQUARE DINER,4530 23 STREET,Queens,NY,11101,40.74614903091,-73.945562340744,ChIJN6wFwihZwokRMtxwzGii9PI
V & S PIZZERIA OF SHEAPSHEAD BAY,1723 EMMONS AVENUE,Brooklyn,NY,11235,40.583369830769,-73.951275749439,ChIJ3SFen2VEwokRLQsTU6QKUsw
DAVIS POLK DINING ROOM,450 LEXINGTON AVENUE,Manhattan,NY,10017,40.753095200871,-73.974853695761,ChIJhZefZQJZwokREsyoq7Jhyn8
DOWN THE HATCH,175 WEST    4 STREET,Manhattan,NY,10014,40.732394199298,-74.00172472868,ChIJ9y3B8ZNZwokR3WxwIDDjtk0
FITZGERALD'S PUB,336 THIRD AVENUE,Manhattan,NY,10010,40.739965655283,-73.982328535776,ChIJ3eQDAwpZwokR6Ped46wInWE
FAROS RESTAURANT,95 CHURCH AVENUE,Brooklyn,NY,11218,40.642676747245,-73.979731163082,ChIJsW5XBilbwokRSqtuXzYyc0I
GUN POST LANES SNACK BAR,1215 EAST GUN HILL ROAD,Bronx,NY,10469,40.872819107014,-73.85208921574,ChIJ1yq1Q0jzwokR_0ViSpcrqbo
PASTA LOVERS TRATTORIA,142 WEST   49 STREET,Manhattan,NY,10019,40.759791039418,-73.982171647892,ChIJ-cKwqvhYwokRQHbX5jlf0bw
DON GIOVANNI RESTAURANT,214 10 AVENUE,Manhattan,NY,10011,40.747402494668,-74.004359714281,ChIJ__StMLhZwokR4zkmIgpKp6Y
EL MOLINO ROJO RESTAURANT,101 EAST  161 STREET,Bronx,NY,10451,40.82734876626,-73.924386234665,ChIJudTVfC30wokRRGCBX88J7BI
SHABU TATSU,216 EAST   10 STREET,Manhattan,NY,10003,40.729286245464,-73.985690473386,ChIJ8fdYs51ZwokRA71PKvTvXG4
TRIBECA GRILL,375 GREENWICH STREET,Manhattan,NY,10013,40.719696466201,-74.010241774594,ChIJRzzoh_VZwokRdXF0AL5vPvA
SAN PIETRO,18 EAST   54 STREET,Manhattan,NY,10022,40.760703619923,-73.974608958407,ChIJA-IwpvtYwokRgeNv-rFho2U
INDO CHINE,430 LAFAYETTE STREET,Manhattan,NY,10003,40.729078264671,-73.992112827263,ChIJq6qqqppYwokRclAbhLgDbOE
DUNKIN' / BASKIN ROBBINS,5615 MYRTLE AVENUE,Queens,NY,11385,40.700167637429,-73.905824280632,ChIJL5f5uiZcwokRBshf-m9szds
GLEN PATRICK'S PUB,5373 65 PLACE,Queens,NY,11378,40.729251976809,-73.900223013324,ChIJ9-OA7_FewokRoizaqCdAnVg
TONY'S PIZZA II,1107 RUTLAND ROAD,Brooklyn,NY,11212,40.664731825529,-73.923219581854,ChIJdRVaiIhcwokRBlWfRrvVoOw
MANETTA'S RISTORANTE,1076 JACKSON AVENUE,Queens,NY,11101,40.742877392198,-73.951974234496,ChIJJVkc8iRZwokRA-3qv5OZmsg
NIAGARA / LOVERS OF TODAY/ 96 TEARS,112 AVENUE A,Manhattan,NY,10009,40.725912651128,-73.983620285047,ChIJq-A7UZ1ZwokRC9nHZurb4iQ
SALVI RESTAURANT,4220 QUENTIN ROAD,Brooklyn,NY,11234,40.617565696307,-73.932257405306,ChIJ_X6ju1lDwokRE2VYr-zD0ss
TIBBETT DINER,3033 TIBBETT AVENUE,Bronx,NY,10463,40.880009203798,-73.909202903403,ChIJM3k1rJXzwokRQj1A0KOxjtc
WHITE CASTLE,17528 HILLSIDE AVENUE,Queens,NY,11432,40.711833748286,-73.787418856784,ChIJM8bJ8RBhwokRfG_2PnTd4Dg
JACKSON HOLE,6935 ASTORIA BOULEVARD,Queens,NY,11370,40.767472490764,-73.89986589137,ChIJPx2YHHJfwokRI4X9I7mD-Zw
CRONIN & PHELAN PUB & RESTAURANT,3814 BROADWAY,Queens,NY,11103,40.759275747152,-73.91967737124,ChIJH1WakDtfwokRiTM-AL-fOQ8
Meze-Mazi,449 THIRD AVENUE,Manhattan,NY,10016,40.743720032216,-73.979566777464,ChIJiWsRTPtZwokRpwGrj5yD_94
PASCALOU,1308 MADISON AVENUE,Manhattan,NY,10128,40.78509053253,-73.955728086994,ChIJaZdHxaNYwokRC5nuEnKTBeM
TOMMASO RESTAURANT,1464 86 STREET,Brooklyn,NY,11228,40.611738896747,-74.010091885999,ChIJwdIYl21FwokRM5Co5S8jet0
PICCOLO ANGOLO,621 HUDSON STREET,Manhattan,NY,10014,40.738048289072,-74.005618475557,ChIJE6hqUJVZwokRv2Wc3xj360Q
BAR SIX,502 6 AVENUE,Manhattan,NY,10011,40.736481138391,-73.997459657418,ChIJ9bgCzJdZwokRvm_6RoQ8edg
MATEUS RESTAURANT,22205 JAMAICA AVENUE,Queens,NY,11428,40.720528624776,-73.732108339754,ChIJE6lQFzNiwokR_SGherneZ3o
LUIGI'S RESTAURANT,26521 UNION TURNPIKE,Queens,NY,11040,40.749310991862,-73.70763394696,ChIJq7l85XtiwokRiLieNJOBm68
THE RESTAURANT,8605 ROCKAWAY BEACH BOULEVARD,Queens,NY,11693,40.587528670655,-73.811412911904,ChIJ28bt80NowokRVoTSMDES8lI
E & L BAKERY & COFFEE SHOP,4202 WHITE PLAINS ROAD,Bronx,NY,10466,40.893564795235,-73.857262215439,ChIJH5aODCfzwokRg0DpSAX5Gds
WEMBLEY ATHLETIC CLUB,550 EAST  239 STREET,Bronx,NY,10470,40.901784816409,-73.85692615797,ChIJpfkNstvywokR_mdkE4S9MIM
CULLEN'S TAVERN,4340 WHITE PLAINS ROAD,Bronx,NY,10466,40.896694368765,-73.85553730983,ChIJ6R9MT9jywokRff5iUMQ2d60
LA ISLA RESTAURANT,293 BROADWAY,Brooklyn,NY,11211,40.708540061826,-73.958221011547,ChIJMW19k-BbwokRF4CpcUXy7ME
RUSSO'S ON THE BAY,16245 CROSS BAY BOULEVARD,Queens,NY,11414,40.653357089289,-73.83842501099,ChIJdbOZr4FnwokRiOekV4KN0UQ
BECCO,355 WEST   46 STREET,Manhattan,NY,10036,40.760434211709,-73.989437889512,ChIJndGJ5FNYwokRricJvhT0t1s
RUDY'S BAR & Grill,627 9 AVENUE,Manhattan,NY,10036,40.759929350815,-73.99154604425,ChIJOxerSlJYwokRPmpdLA4CpWI
AUSTINS ALE HOUSE,8270 AUSTIN STREET,Queens,NY,11415,40.709629396049,-73.830024473794,ChIJ9-CAs7xgwokR0dG6ectdSDo
PRIMA PASTA & CAFE,161-50 CROSSBAY BOULEVARD,Queens,NY,11414,40.654974365702,-73.838849957521,ChIJA5Eqy4FnwokR6cfXrY00jKY
GINO'S PIZZERIA RESTAURANT,345 EAST   83 STREET,Manhattan,NY,10028,40.775463208878,-73.952062570474,ChIJGZh1fblYwokROENWvTgd4hw
THE GRAY MARE,61 2 AVENUE,Manhattan,NY,10003,40.725913352319,-73.989634598813,ChIJ2YoWsYRZwokRJXhv6sEGsw4
WINCHESTERS PUB,23312 HILLSIDE AVENUE,Queens,NY,11427,40.733433871716,-73.736544971539,ChIJWxpNB2hiwokRFYqoSs52gR4
CAFE CARDINI,27120 UNION TURNPIKE,Queens,NY,11040,40.751927723906,-73.702666846878,ChIJlaVqTH5iwokR2tbwaDwyV2s
SUNRISE DINER,4504 PARSONS BOULEVARD,Queens,NY,11355,40.755551739087,-73.815544696668,ChIJ2-jpfD5gwokRPvwOQQ1Ywzk
FELIX,340 WEST BROADWAY,Manhattan,NY,10013,40.722565148154,-74.003622115531,ChIJE4nPdYtZwokRFybT0wpKdXo
MIKE'S DONUTS,6822 5 AVENUE,Brooklyn,NY,11220,40.633948241399,-74.020821018497,ChIJ3V1EWFBFwokRF7eRn-IAj-E
ILDA'S PLACE II,8122 BAXTER AVENUE,Queens,NY,11373,40.745664061077,-73.883918395821,ChIJ_4DL_KtfwokRMUUmfsITzRo
BROADWAY STATION,30-09 BROADWAY,Queens,NY,11106,40.76227179415,-73.926012632412,ChIJx8IfSzdfwokR0Ex76RLhSwU
WHITE CASTLE,2900 EAST TREMONT AVENUE,Bronx,NY,10461,40.840630454205,-73.8409572941,ChIJs1kZLbP0wokRzfGaBN84EVw
MCDONALD AVENUE DINER,1111 MCDONALD AVENUE,Brooklyn,NY,11230,40.626251305995,-73.976281412702,ChIJ0VPdutBEwokRh1vLRGZEkvE
COUNTRY DONUTS,3235 RICHMOND AVENUE,Staten Island,NY,10312,40.560368207624,-74.169759855293,ChIJFRCFjaBLwokRmr5D6BnqMvg
FRANK'S PLACE,365 SMITH STREET,Brooklyn,NY,11231,40.679406328926,-73.995410400909,ChIJXbcuI1hawokR-oHMILRcqqM
ELMHURST FAMOUS PIZZA,83-07 BROADWAY,Queens,NY,11373,40.740971805259,-73.879841567041,ChIJs6wQJa1fwokRzw5QxKMORGw
MCDONALD'S,300 EAST  204 STREET,Bronx,NY,10467,40.872957159909,-73.87855715106,ChIJO8w-jXHzwokRwFLAhHnunxM
JAVA RESTAURANT,455 7 AVENUE,Brooklyn,NY,11215,40.662761113564,-73.985009142814,ChIJhelYP-JawokReujVVcWA14g
TEQUILLA SUNRISE,34-37 BELL BOULEVARD,Queens,NY,11361,40.769546905665,-73.773894046731,ChIJqfJ0g3SKwokR1RL0HoxW4N4
PIZZA NOSH,2807 NOSTRAND AVENUE,Brooklyn,NY,11229,40.61564281443,-73.944736292883,ChIJYy7Qg6NEwokRNA0iDXLiIjo
CARIDAD RESTAURANT,3533 BROADWAY,Manhattan,NY,10031,40.826199269889,-73.950623907555,ChIJz6dyp2P2wokRiQdayjc8crQ
WHITE CASTLE,9808 ROCKAWAY BOULEVARD,Queens,NY,11417,40.680121960418,-73.840743073521,ChIJ4znnR19nwokRAkQsbe-pwB4
THE STUMBLE INN,1454 2 AVENUE,Manhattan,NY,10021,40.771281983582,-73.956538796394,ChIJZ0kHf79YwokRoyp64RkoMeQ
ROSA'S PIZZA & PASTA,7559 METROPOLITAN AVENUE,Queens,NY,11379,40.713124184437,-73.875447921726,ChIJY38kEm9ewokRmvQs-126ViU
MCDONALD'S,25001 NORTHERN BOULEVARD,Queens,NY,11362,40.768459306778,-73.737474499503,ChIJNX4CvvqJwokRV5ieWf5yBNA
GOLDEN PIZZA,504 EAST  138 STREET,Bronx,NY,10454,40.80764089873,-73.919459837946,ChIJkZQHNML1wokRlZkicQDNaEE
MCDONALD'S,2516 WHITE PLAINS ROAD,Bronx,NY,10467,40.863664897107,-73.86739906882,ChIJQ1oOEWfzwokRJYMgI5paA6U
LA CONTENTA OESTE,78 WEST   11 STREET,Manhattan,NY,10011,40.734974259837,-73.997326205797,ChIJbVF-VpZZwokRheGwm9Fu0wQ
SMILER'S DELI,532 MADISON AVENUE,Manhattan,NY,10022,40.760456388468,-73.973706616717,ChIJWX2XCPtYwokRMgW7fkpimFQ
CARMINE'S,200 WEST   44 STREET,Manhattan,NY,10036,40.75739816357,-73.98618975195,ChIJR9So-lRYwokRX1xEjA0rChA
HEAVEN CAN WAIT,169 AVENUE A,Manhattan,NY,10009,40.728212517161,-73.981967257335,ChIJ__87MHZZwokRxkDdfBZFsJk
DELMONICO GOURMET,375 LEXINGTON AVENUE,Manhattan,NY,10017,40.75086404999,-73.976453427187,ChIJ_ftOzwNZwokRKV8SmZCPKtY
DA NICO RESTAURANT,164 MULBERRY STREET,Manhattan,NY,10013,40.719823145948,-73.997092326151,ChIJkwvCUIhZwokRBOF1SVW2DH8
LA DINASTIA,4059 BROADWAY,Manhattan,NY,10032,40.843101380495,-73.939197519865,ChIJGaxrhp72wokRssXfeZ0Kz24
MCDONALD'S,51-67 E 161 ST,Bronx,NY,10451,40.827753119815,-73.925729962397,ChIJa02PDS30wokRc6knd7dBbwg
CAFFE ROMA,385 BROOME STREET,Manhattan,NY,10013,40.720443453388,-73.996720719326,ChIJd0rS8IhZwokRenSFGigBbU0
POLLOS A LA BRASA MARIO,8101 ROOSEVELT AVENUE,Queens,NY,11372,40.747550518499,-73.884716304346,ChIJAYtO-15fwokRIT8bEFgb5BE
ESS-A-BAGEL,831 THIRD AVENUE,Manhattan,NY,10022,40.75621494774,-73.970466953387,ChIJZyVQJONYwokREKv0a1J7bFI
AUCTION HOUSE,300 EAST   89 STREET,Manhattan,NY,10128,40.77964807397,-73.949986952626,ChIJRRUB1LpYwokR6W6JHWHPSl4
ROYAL KING'S PIZZA,5211 5 AVENUE,Brooklyn,NY,11220,40.643849974349,-74.01160298782,ChIJKbAdcLRawokRgx3kX6-QyMs
MR. PHIL'S PIZZA,7212 NEW UTRECHT AVENUE,Brooklyn,NY,11228,40.618041365912,-73.999319219402,ChIJAVmjExZFwokRXMGMvK9AFA4
TEE DEE'S TAVERN,6431 COOPER AVENUE,Queens,NY,11385,40.698170005038,-73.890972508013,ChIJjUxrbytcwokRx7XH2vPjFjQ
METRO DINER,2641 BROADWAY,Manhattan,NY,10025,40.797306507192,-73.969856325976,ChIJ1Zf6Cyb2wokRL9c6DesuQG4
PUGSLEY PIZZA,590 EAST  191 STREET,Bronx,NY,10458,40.859069713643,-73.884753619678,ChIJ_9Abw4H0wokR54WowS3eOzI
MEDITERRANEO,1260 2 AVENUE,Manhattan,NY,10065,40.765072225292,-73.961069799916,ChIJF_T6x-lYwokR4NQQK1Vt0rM
POPEYES,21820 JAMAICA AVENUE,Queens,NY,11428,40.718021838652,-73.736501511822,ChIJs9pNhNJjwokRs4XN6aa9kms
PARADISE ALLEY BAR,4109 150 STREET,Queens,NY,11355,40.762388899418,-73.813814615944,ChIJK0BUciNgwokRMMgube3cRaY
FLANNERY'S BAR,205 WEST   14 STREET,Manhattan,NY,10011,40.738767554558,-74.000184036839,ChIJt-G0571ZwokRWKqfW3zX8NU
MANHATTAN ESPRESSO,146 EAST   49 STREET,Manhattan,NY,10017,40.755666471402,-73.972376614886,ChIJlRWYJf1YwokRZwo1aC69WSU
TOLEDO,6 EAST   36 STREET,Manhattan,NY,10016,40.749503825628,-73.983138054467,ChIJJ2Ug4qlZwokRMu3UDWpfm2c
BAGEL BOB'S,51 UNIVERSITY PLACE,Manhattan,NY,10003,40.732476399025,-73.994013957267,ChIJdffD75lZwokR_n3cJkw6kF4
WHITE CASTLE,931 WESTCHESTER AVENUE,Bronx,NY,10459,40.821860285623,-73.897377416365,ChIJO2uRK1P0wokRky4FUNEOZT4
"SUGAR HILL RESTAURANT, SUPPER CLUB AND DISCO",609 DEKALB AVENUE,Brooklyn,NY,11216,40.69138798245,-73.951268630104,ChIJM_K3R5JbwokRNh8sz-CqMLY
ARIRANG HIBACHI STEAKHOUSE,8812 4 AVENUE,Brooklyn,NY,11209,40.621103607211,-74.029051579297,ChIJ1QUYLmBFwokRDwAE7fpO56Y
MCCOY'S PUB,768 9 AVENUE,Manhattan,NY,10019,40.764342637391,-73.988307350922,ChIJLxEfOFdYwokRC__k-jHFpxI
BEN'S KOSHER DELI & RESTAURANT,21137 26 AVENUE,Queens,NY,11360,40.778014715002,-73.778223312865,ChIJg8i3U3yKwokRaWZRnYYe6gQ
LUCIA PIZZA,13655 ROOSEVELT AVENUE,Queens,NY,11354,40.760023562641,-73.828314315508,ChIJ05JUTBBgwokR5r9N-VKn6Rg
MANHATTAN DINER,2532 BROADWAY,Manhattan,NY,10025,40.793763679678,-73.972418531085,ChIJz2O4Gij2wokR6WB-CIocVOM
DOMINICK'S BAR & RESTAURANT,2335 ARTHUR AVENUE,Bronx,NY,10458,40.854188025454,-73.888749295607,ChIJn1_QWIf0wokROm8gWiL2oOU
LA VILLA PIZZERIA,6610 AVENUE U,Brooklyn,NY,11234,40.617413747827,-73.910793354064,ChIJ3T0blTdDwokRULk0sU4iCpw
JENTANA'S PIZZA,5102 FT HAMILTON PARKWAY,Brooklyn,NY,11219,40.637337192514,-73.999218136129,ChIJJViFajNFwokRIHD0z7i6ewE
MORTON'S THE STEAKHOUSE,5 EAST   45 STREET,Manhattan,NY,10017,40.755231469765,-73.979065127111,ChIJR7SnMP5YwokR-8MZMiv4mJ0
THE MERCURY LOUNGE,217 EAST HOUSTON STREET,Manhattan,NY,10002,40.722325633856,-73.986651614381,ChIJQxzbx4NZwokRfWXvfisf3Eo
WHITE CASTLE,2221 HYLAN BOULEVARD,Staten Island,NY,10306,40.576303633247,-74.103899730231,ChIJE4z--bROwokRS_1me6w3Hik
GOURMET GRILL,6334 AVENUE N,Brooklyn,NY,11234,40.619613516141,-73.916002642528,ChIJz5oN_UhDwokRcrjVrv6NMQ4
ALFONSO'S BAR,7515 BROADWAY,Queens,NY,11373,40.746120293267,-73.890103369473,ChIJUYmfugBfwokRZoUtFnK9fdk
VIRGIL'S BBQ,152 WEST   44 STREET,Manhattan,NY,10036,40.756709021073,-73.984558382743,ChIJNe_8fqtz5okR_V-vTEVkjqs
PYRAMID,101 AVENUE A,Manhattan,NY,10009,40.725731519113,-73.983779075444,ChIJzeU2nKZZwokRkGJv13tAEkA
TOAD HALL,57 GRAND STREET,Manhattan,NY,10013,40.722244013776,-74.00351386799,ChIJKUZYdYtZwokRUFeMJp0FKsM
OLYMPIA,2344 STEINWAY STREET,Queens,NY,11105,40.770129101483,-73.909396613868,
LANDMARK COFFEE SHOP,158 GRAND STREET,Manhattan,NY,10013,40.7198972847,-73.998748183682,ChIJN66GpolZwokRAPJSwkC8FtE
LA LOCANDA RESTAURANT,432 GRAHAM AVENUE,Brooklyn,NY,11211,40.717844701623,-73.944918173753,ChIJ7dF8q1FZwokRuwrl-PU-Wxw
LA GIOCONDA,226 EAST   53 STREET,Manhattan,NY,10022,40.757372753466,-73.968647211003,ChIJ15B1duNYwokRY6etRnGuko0
MCDONALD'S,3001 STRATTON STREET,Queens,NY,11354,40.769859328308,-73.834798166299,ChIJQ4fruANgwokROYWLoIIdf7I
CURRY IN A HURRY,119 LEXINGTON AVENUE,Manhattan,NY,10016,40.74277629464,-73.982342222543,ChIJQdVfLQhZwokR_36gUOF9v9U
NICK'S PIZZA,10826 ASCAN AVENUE,Queens,NY,11375,40.718005401988,-73.840771248861,ChIJUQL7Np5gwokRNuZjIxhNGU8
PAVILLION CATERERS,1478 39 STREET,Brooklyn,NY,11218,40.638343199407,-73.9825393102,ChIJPS5ikCpbwokRpZ8bbDhNTJE
PERRY'S RESTAURANT,3482 NOSTRAND AVENUE,Brooklyn,NY,11229,40.598941985286,-73.941617316352,ChIJQ3UnfYNEwokR8rFaOXrL4DA
TOM AND JERRY BAR,288 ELIZABETH STREET,Manhattan,NY,10012,40.72475258944,-73.993311132001,ChIJ_67GdIVZwokRCIXPZBDVgdY
DYCKMAN BAR,221 DYCKMAN STREET,Manhattan,NY,10034,40.86568095928,-73.927433716803,ChIJnXTVg_jzwokRODvoi95Aqrw
JOSEPH'S RISTORANTE,3 HANOVER SQUARE,Manhattan,NY,10004,40.704800657511,-74.009622728173,ChIJST0cgRZawokRNvJv5mhG57E
MASTER WOK,5100 KINGS PLAZA SHOPPING CT,Brooklyn,NY,11234,40.609928854538,-73.922281617072,ChIJtzE7sENDwokRmExyxb1EOIw
CAFFEE EXPRESSO,2551 STEINWAY STREET,Queens,NY,11103,40.76753733888,-73.912010278937,ChIJB5PEJ0BfwokREQVFtAFMCLw
DOC HOLIDAYS,141 AVENUE A,Manhattan,NY,10009,40.727109245489,-73.982775733756,ChIJwRcz2HdZwokR_I0BuB3PkFc
FAMOUS PIZZA,7512 37 AVENUE,Queens,NY,11372,40.749071388899,-73.890600151304,ChIJuztCCwdfwokRhfbir-Pw7j4
VIXENS,6007 METROPOLITAN AVENUE,Queens,NY,11385,40.712869909775,-73.905178618669,ChIJh00YQZpewokRFYJK8QJ9ric
RICK'S CABARET,50 WEST   33 STREET,Manhattan,NY,10001,40.74864523784,-73.987176858473,ChIJ2VhDH6lZwokR_acLQfV63Tc
JOE'S PIZZA,1858 ARCHER STREET,Bronx,NY,10460,40.837743156656,-73.86465734362,ChIJl7kQ77_0wokRW1tyHJZMFiQ
FRESCO,34 EAST   52 STREET,Manhattan,NY,10022,40.758946911086,-73.974324467264,ChIJM0KKgPtYwokRbfhZtOleFGo
STARBUCKS,1445 1 AVENUE,Manhattan,NY,10021,40.769845691663,-73.95451438349,ChIJUa-Pu8BYwokRPX3B4lfPeqw
GIGINO TRATTORIA,323 GREENWICH STREET,Manhattan,NY,10013,40.717379839973,-74.01070316483,ChIJOYhlWR5awokROi9Hpwx0iQI
POMODORO RISTORANTE,229 COLUMBUS AVENUE,Manhattan,NY,10023,40.776382651041,-73.979524220854,ChIJTwupD4tYwokRos9K3GFnM9Y
ARTE RESTAURANT,21 EAST    9 STREET,Manhattan,NY,10003,40.732347429966,-73.994724787541,ChIJh4jF_ZlZwokRWwOOOHh2Dj4
NYU LUTHERAN COFFEE SHOP,150 55 STREET,Brooklyn,NY,11220,40.646933783885,-74.020929590199,ChIJRcrYKqxawokR-erDeBMVIy0
O'HANLON'S BAR,118-12 QUEENS BOULEVARD,Queens,NY,11375,40.714973720179,-73.83205611952,ChIJGS_ObphgwokRQppCWtSotPE
TURKISH KITCHEN,386 3 AVENUE,Manhattan,NY,10016,40.741730332776,-73.981043359233,ChIJUUkquAlZwokRJhCVrIpv9lc
PIZZA CHEF,15381 CROSS ISLAND PARKWAY,Queens,NY,11357,40.786929015003,-73.808328935438,ChIJMVyhipKKwokRK8KCVJkwFcI
OLIVE GARDEN,2 TIMES SQUARE,Manhattan,NY,10036,40.759302858192,-73.984857382733,ChIJM3wn3VVYwokRvu2kbqBKUsM
SARDI'S RESTAURANT,234 WEST   44 STREET,Manhattan,NY,10036,40.757914319796,-73.987420520437,ChIJFfZLSpZZwokRGHQyku5QprM
JUDGE ROY BEAN,38 WEST   56 STREET,Manhattan,NY,10019,40.762836553474,-73.975795790921,ChIJrZOHF_pYwokRv56k2hjLbPQ
PIO PIO ONE,6230 WOODHAVEN BOULEVARD,Queens,NY,11374,40.725958303426,-73.870113053345,ChIJLbBHhkZewokR6Bz5yTLp5Vc
LA LINEA,15 FIRST AVENUE,Manhattan,NY,10003,40.723363342394,-73.98836507663,ChIJw-s_gYNZwokR93EwQkUTGkE
"DUNKIN', BASKIN ROBBINS",6103 FLUSHING AVENUE,Queens,NY,11378,40.721127891602,-73.903940237284,ChIJCZm2q5NewokRtbM89f_J56M
MICHAEL'S PASTRY SHOP,2923 AVENUE R,Brooklyn,NY,11229,40.607372132012,-73.943421438382,ChIJY8jTP5lEwokRRSpV7D6rmjA
MCDONALD'S,599 GRAND CONCOURSE,Bronx,NY,10451,40.819854381506,-73.926710703668,ChIJEzbLmNH1wokRJbgEGsG2aAQ
STARBUCKS,1128 3 AVENUE,Manhattan,NY,10065,40.76581959068,-73.963477256177,ChIJvU8kbelYwokREe9PTqdJ7Nk
NOVITA,102 EAST   22 STREET,Manhattan,NY,10010,40.739271772083,-73.986290955574,ChIJQQwA46BZwokRSK41tPIemGA
HANGAWI,12 EAST   32 STREET,Manhattan,NY,10016,40.746822419604,-73.984751960331,ChIJtSk6aqhZwokRAA7X1yq7onk
HANGAR BAR,115 CHRISTOPHER STREET,Manhattan,NY,10014,40.733220259636,-74.005394354534,ChIJi6U2WZNZwokRyt48I1048Io
DUNKIN',6908 GRAND AVENUE,Queens,NY,11378,40.72607440915,-73.895050484292,ChIJLWS7ifNewokRJlFinITh6gE
SCHICK'S MANOR,4901 12 AVENUE,Brooklyn,NY,11219,40.636266592592,-73.994386523991,ChIJX3_Yei1FwokRdJ9s81Tj2NY
FIFTH AVE DINER,432 5 AVENUE,Brooklyn,NY,11215,40.669546329242,-73.985998933571,ChIJpzOBUvxawokRmMey6MmPzRs
DOYLE'S CORNER,42-02 BROADWAY,Queens,NY,11103,40.758148691304,-73.917278337563,ChIJh5XhiTxfwokR9IECOUi--6w
CAFE GITANE,242 MOTT STREET,Manhattan,NY,10012,40.723262258006,-73.99479405618,ChIJB-TnioVZwokR1qMpyVU83P4
CHINA GLATT,4413 13 AVENUE,Brooklyn,NY,11219,40.637679796443,-73.989334889435,ChIJAXQOU9NawokR0QPQ1nvCy2k
BUS STOP CAFE,597 HUDSON STREET,Manhattan,NY,10014,40.736958606135,-74.005852933681,ChIJfdvZMJVZwokRMQq0PSULqp8
CABANA,10712 70 ROAD,Queens,NY,11375,40.721116246567,-73.845529443198,
STARBUCKS,585 2 AVENUE,Manhattan,NY,10016,40.74356303613,-73.97670863535,ChIJnbOTTQ9ZwokRJhNJSz7suos
WHEELER'S,1705 SHEEPSHEAD BAY ROAD,Brooklyn,NY,11235,40.585744276712,-73.95175644597,ChIJwUxdRGREwokR4XaeRzDcmak
BONELLE PASTRY SHOP,10830 ASCAN AVENUE,Queens,NY,11375,40.718021855543,-73.84076038707,ChIJqwgoOJ5gwokR5MUXtndMe6o
CAFE EIGHTY TWO,2282 BROADWAY,Manhattan,NY,10024,40.785958886677,-73.9783873687,ChIJhzU8b4ZYwokR74T2OLMeh4w
DOMINO'S,170 WEST   23 STREET,Manhattan,NY,10011,40.743669576786,-73.994655319797,ChIJfTNUMLtZwokRD2OS-fD0Rzk
STARBUCKS,2252 BROADWAY,Manhattan,NY,10024,40.784916023812,-73.979160478858,ChIJwZmhPYZYwokRgpXtrDKmE0Y
AVELLINO RESTAURANT,9703 64 AVENUE,Queens,NY,11374,40.729778344863,-73.860197788032,ChIJd7Vs1DBewokRSlQzyitbW28
THE ARCH DINER,1866 RALPH AVENUE,Brooklyn,NY,11236,40.631195582958,-73.9185207266,ChIJJUmq8bNcwokRTpgmhFIepj8
FORTUNATO BROS CAFE & BAKERY,289 MANHATTAN AVENUE,Brooklyn,NY,11211,40.713739031606,-73.945978491045,ChIJB5f1E1dZwokRVTnd5tPV58M
PEKING DUCK HOUSE,236 EAST   53 STREET,Manhattan,NY,10022,40.757306835748,-73.968488420896,ChIJPQ1UmeNYwokRJ2mMjQeUL_I
IL BUCO RESTAURANT,47 BOND STREET,Manhattan,NY,10012,40.726020645904,-73.992885275269,ChIJrbkQPIVZwokRLZABuyqHmoc
RYAN MAGUIRE'S BAR & RESTAURANT,28 CLIFF STREET,Manhattan,NY,10038,40.708223672407,-74.00519033719,ChIJzfaXRz1awokRr3iYyWFIRYo
THE SCRATCHER CAFE,209 EAST    5 STREET,Manhattan,NY,10003,40.727513644254,-73.990723950969,ChIJ4T3bPptZwokRxMTOwDwXsOw
VILLAGE MARIA PIZZA II,768 MANOR ROAD,Staten Island,NY,10314,40.60799180107,-74.121095847185,ChIJLTX6VIJOwokRHRBnE5Ol16s
WHITE CASTLE,351 EAST  103 STREET,Manhattan,NY,10029,40.788035173782,-73.942292283737,ChIJX6gV9qlYwokRb44IOUFbw4Q
IRISH PUNT,40 EXCHANGE PLACE,Manhattan,NY,10005,40.705931445677,-74.010282932982,ChIJ_Wl47RZawokRSpwnoFEn7HQ
SCORPION BAR,6908 ROOSEVELT AVENUE,Queens,NY,11377,40.74633726081,-73.896137224376,ChIJ-7PBMzpfwokRGLugk52i9wI
ALTESI DOWNTOWN RISTORANTE,200 SPRING STREET,Manhattan,NY,10012,40.725180921477,-74.00326869121,ChIJQSniWIxZwokRyIAdIFQT_bY
NAIM KOSHER PIZZA,3904 15 AVENUE,Brooklyn,NY,11218,40.637862778914,-73.98199897321,ChIJLQ5xmipbwokRbnKvZfcml1Y
SALAM CAFE & REST,104 W. 13TH ST. (UNIT ONE),Manhattan,NY,10011,40.736868158143,-73.997852964986,ChIJ1RDNM5ZZwokRvA50sB0jakY
MCCABE'S BAR CAR,3915 192 STREET,Queens,NY,11358,40.761337514525,-73.789888186824,ChIJ2-Lh7tNhwokRa3Rp5GK0gU4
FRENCH ROAST,2340 BROADWAY,Manhattan,NY,10024,40.78767958083,-73.977021764246,ChIJ2V6HH4RYwokRb0PY09qwtJA
LA CABANA SALVADORENA RESTAURANT,4384 BROADWAY,Manhattan,NY,10040,40.854425804453,-73.93360577514,ChIJDQSKBh30wokRZ988Lsgsomk
BIG BAR,73 EAST    7 STREET,Manhattan,NY,10003,40.727392481603,-73.98672636244,ChIJo3_m5pxZwokRyDo458xlexg
LA CASA BELLA,2579 CROPSEY AVENUE,Brooklyn,NY,11214,40.59067829724,-73.991761982585,ChIJs2bl-K5FwokRjco28AAQMGc
SHENANIGANS PUB,802 CATON AVENUE,Brooklyn,NY,11218,40.647728453129,-73.972799855941,ChIJZdSs4CRbwokRaf-Of_CEbIg
BROADWAY DIVE,2662 BROADWAY,Manhattan,NY,10025,40.797978833846,-73.969339534706,ChIJ9T8N2iX2wokRELO5fBJP8sM
IHOP,2101 RALPH AVENUE,Brooklyn,NY,11234,40.625985562164,-73.917932708,ChIJj39jW0tDwokR-O6OfVbj380
JAKE'S DILEMMA,430 AMSTERDAM AVENUE,Manhattan,NY,10024,40.784218553109,-73.977550174885,ChIJc6GIBIZYwokRd_xjvFrHhbU
MCDONALD'S,221-12 SOUTH CONDUIT AVENUE,Queens,NY,11413,40.665487277341,-73.756646891016,ChIJGRSb-KJmwokRE-HHSMBPkWw
THREE DECKER RESTAURANT,1746 2 AVENUE,Manhattan,NY,10128,40.781009232578,-73.949440685825,ChIJs7tVR6VYwokR6nS9Ymkr26g
72ND EATERY,261 COLUMBUS AVE STORE #2,Manhattan,NY,10023,40.777557250664,-73.978671738806,ChIJ65f3PTpZwokRb46hkO-GDM8
VILLAGE PIZZA,65 8 AVENUE,Manhattan,NY,10014,40.739124333525,-74.00304564563,ChIJld2MNr5ZwokREFFvk_z5MO4
SPORTS MANIA BAR & GRILL,14367 243 STREET,Queens,NY,11422,40.660686354583,-73.739053665576,ChIJ1xVrhyJkwokRUla10TndxCY
JOHNNY'S BAR,90 GREENWICH AVENUE,Manhattan,NY,10011,40.737738254285,-74.001797037737,ChIJJTHa9ZVZwokRTV6FCXczeIQ
O'NIEALS,174 GRAND STREET,Manhattan,NY,10013,40.71954319801,-73.997940105749,ChIJEUf6rIlZwokRHhWVMHCKqCY
BROOKLYN DINER,888 7 AVENUE,Manhattan,NY,10106,40.76500853812,-73.980415789365,ChIJj19umPdYwokRM3HY382Gz1o
TJ BYRNE'S BAR,77 FULTON STREET,Manhattan,NY,10038,40.708830267209,-74.00517595685,ChIJyYiySj1awokRueQwalZ6hmA
GRAND AVENUE PIZZA,3424 30 AVENUE,Queens,NY,11103,40.765634692816,-73.918738285351,ChIJKTforDhfwokRisnHEFEoPPI
LE MARAIS,150 WEST   46 STREET,Manhattan,NY,10036,40.75797697788,-73.983677342774,ChIJkeBwmVVYwokReNSgF1CfLoM
ESTANCIA 460,460 GREENWICH STREET,Manhattan,NY,10013,40.723728593746,-74.009491985046,ChIJ3TKSfPRZwokRahksh93oAN0
HENRY ST. ALE HOUSE,62 HENRY STREET,Brooklyn,NY,11201,40.699108141894,-73.992220972435,ChIJ3wxUrjdawokRCvceYKTpXFU
LOMBARDI'S,32 SPRING STREET,Manhattan,NY,10012,40.721684052993,-73.995660012794,ChIJp-cWE4pZwokRmUI8_BIF8dg
RAB'S COUNTRY LANE,1600 HYLAN BOULEVARD,Staten Island,NY,10305,40.589507305947,-74.089442859147,ChIJfQHAKMNOwokRlFAuJ6LKxr8
THE TRIPLE CROWN,330 7 AVENUE,Manhattan,NY,10001,40.747542355426,-73.993142819043,ChIJDUiwlK9ZwokRgEzA-oCI9a4
WOOD BINE CATERERS,2281 CHURCH AVENUE,Brooklyn,NY,11226,40.650452096542,-73.957461093571,ChIJk4vVsEFbwokRajHyUUg9BJs
UNFORGETTABLE LOUNGE,112-22 SUTPHIN BOULEVARD,Queens,NY,11435,40.687286661996,-73.794662099192,ChIJX8pTY9VmwokRE912jHeyFc4
ASTORIA BAGEL SHOP,2812 DITMARS BOULEVARD,Queens,NY,11105,40.777185326208,-73.912228563288,ChIJUyVxHFxfwokR1IlQnzpuDUc
J & M BAKERY,3010 36 AVENUE,Queens,NY,11106,40.756861860383,-73.930379001933,ChIJS6xQ4i1fwokR0m8A8i00x8Q
BLAKE & TODD,7 WEST   47 STREET,Manhattan,NY,10036,40.756919518444,-73.97918370977,ChIJ5QYPWP5YwokRmA1tFzUI1zg
TIRO A SEGNO OF NEW YORK,77 MACDOUGAL STREET,Manhattan,NY,10012,40.728724450276,-74.001573096514,ChIJE9TKDZJZwokRyP-CQ6ompZo
COLONY CLUB,564 PARK AVENUE,Manhattan,NY,10065,40.765044244954,-73.968253706291,ChIJ869Fqe9YwokRxJN6J2uGTNc
WOMENS NATL. REPUBLICAN CLUB,3 WEST   51 STREET,Manhattan,NY,10019,40.759290579691,-73.977031595597,ChIJdYP3VvlYwokRN_vkqtBkU8g
THE CENTURY ASSOCIATION,7 WEST   43 STREET,Manhattan,NY,10036,40.75441661458,-73.981010859725,ChIJV3st2P9YwokRWvYcnFv8Sp8
REGENCY WHIST CLUB,15 EAST   67 STREET,Manhattan,NY,10065,40.768895196191,-73.968461255383,ChIJa7UoNexYwokRw2KllWxTmbk
HARVARD CLUB,27 WEST   44 STREET,Manhattan,NY,10036,40.755237298321,-73.981014234331,ChIJ2w7f2v9YwokRQae0xpBRsxg
THE RIVER CLUB,447 EAST   52 STREET,Manhattan,NY,10022,40.75468158264,-73.964183616201,ChIJm9WXpeFYwokRiTjlvX7-DvA
FRIARS NATIONAL ASSOC.,57 EAST   55 STREET,Manhattan,NY,10022,40.760771821073,-73.972786002313,ChIJuda4IftYwokRiGkHH-P19nw
UNION CLUB OF CITY OF NEW YORK,101 EAST   69 STREET,Manhattan,NY,10021,40.769028654782,-73.96489791296,ChIJ2eCrj-tYwokRqa8u4TB3QNs
NEW YORK JR. LEAGUE,130 EAST   80 STREET,Manhattan,NY,10075,40.775863873676,-73.958965717415,ChIJscTaBL5YwokRsW6zjYZ1cwM
KNICKERBOCKER CLUB,2 EAST   62 STREET,Manhattan,NY,10065,40.766027698235,-73.971412028044,ChIJpVW51PFYwokRD0R6txP1RKQ
ANGLERS CLUB OF NEW YORK,101 BROAD STREET,Manhattan,NY,10004,40.703367707178,-74.01157010716,ChIJKTVybBRawokR6RUrMi9cyrU
THE UNION LEAGUE CLUB,38 EAST   37 STREET,Manhattan,NY,10016,40.749451357976,-73.981102509172,ChIJ3cidLwdZwokRRx2QsMYX3Cg
LOTOS CLUB GRILL ROOM,5 EAST   66 STREET,Manhattan,NY,10065,40.768483744552,-73.969428979771,ChIJudCT2u1YwokRRbxg9MWe4zY
MADISON SQUARE,51 MADISON AVENUE,Manhattan,NY,10010,40.743015641993,-73.986402054932,ChIJo4AZsxpZwokRsgcNdjwQRy4
YALE CLUB,50 VANDERBILT AVENUE,Manhattan,NY,10017,40.753974024949,-73.977253608771,ChIJwWEH_AFZwokRhh1zaQklMQw
RIVERDALE YACHT CLUB,800 WEST 254 STREET & HUDSON RIVER,Bronx,NY,10471,40.903121070343,-73.914503439732,ChIJMTiVRzXywokRjVbe9i0mzX0
ISLAND CHATEAU,900 WEST FINGERBOARD ROAD,Staten Island,NY,10305,40.601458180701,-74.085771386312,ChIJnaP61eROwokR1Vge2XZQXm8
THE UNIVERSITY CLUB,1 WEST   54 STREET,Manhattan,NY,10019,40.761244606063,-73.975854128265,ChIJzyGQtvtYwokRf9qLjSWZpqI
THE UNIVERSITY CLUB,1 WEST   54 STREET,Manhattan,NY,10019,40.761244606063,-73.975854128265,ChIJzyGQtvtYwokRf9qLjSWZpqI
HARMONIE CLUB,4 EAST   60 STREET,Manhattan,NY,10022,40.764713143321,-73.972159859674,ChIJl0OgF_BYwokR4oiYWv9mJYs
CBS EMPLOYEE CAFETERIA,524 WEST   57 STREET,Manhattan,NY,10019,40.769736250666,-73.990071812552,ChIJv8u4lVtYwokR3b7mMNUNALY
COLUMBUS CITIZENS FOUNDATION,8 EAST   69 STREET,Manhattan,NY,10021,40.770245442792,-73.96783603539,ChIJQ528V-xYwokROROHtOKp7Jk
GLEN TERRACE,5313 AVENUE N,Brooklyn,NY,11234,40.619146832106,-73.923747693639,ChIJYS_F5U9DwokRPIFObhrHMDk
THE TAP ROOM,1 WEST   54 STREET,Manhattan,NY,10019,40.761244606063,-73.975854128265,ChIJzyGQtvtYwokRf9qLjSWZpqI
THE UNIVERSITY CLUB,1 WEST   54 STREET,Manhattan,NY,10019,40.761244606063,-73.975854128265,ChIJzyGQtvtYwokRf9qLjSWZpqI
SIMPSON THACHER AND BARTLET CAFE,425 LEXINGTON AVENUE,Manhattan,NY,10017,40.75241734621,-73.975319553347,ChIJjRRuRAJZwokRVAlT038DGuI
CLEARY GOTTLIEB,1 LIBERTY PLAZA,Manhattan,NY,10006,40.709422716852,-74.011102256001,ChIJo3nLXxdawokRCp047CZbKuQ
ANTUN'S,9643 SPRINGFIELD BOULEVARD,Queens,NY,11429,40.717604789122,-73.735377648263,ChIJ-5mId81jwokRcksZS_GBVM0
PRINCESS MANOR,92 NASSAU AVENUE,Brooklyn,NY,11222,40.723924066506,-73.950277867763,ChIJiVEgrkVZwokRo0EN8ndY0Y4
S.M.R RESTAURANT SERVICES,4605 56 ROAD,Queens,NY,11378,40.726697579538,-73.922848456032,ChIJi9yr0exewokR2QyG4xmIxIg
THE PENN CLUB,30 WEST   44 STREET,Manhattan,NY,10036,40.755248289281,-73.981086420422,ChIJ3VPc5v9YwokRDJWBNgYX_08
LAZARD FRERES,30 ROCKEFELLER PLAZA,Manhattan,NY,10112,40.758747437799,-73.978692223615,ChIJNZvR1v5YwokRjew1lGylW70
HOLTERMANN'S BAKERY,405 ARTHUR KILL ROAD,Staten Island,NY,10308,40.564192636259,-74.155592735233,ChIJla52-pZLwokR3VrNvIIRxng
LA DELICE PASTRY SHOP,372 3 AVENUE,Manhattan,NY,10016,40.741252800769,-73.981389930891,ChIJ95Md1GZZwokRkmBdizQA7Xg
BUONO BAKERY,1117 HYLAN BOULEVARD,Staten Island,NY,10305,40.598569386104,-74.079952109305,ChIJ4_-14uJOwokR3--4_Tqwhwk
KINGSTON TROPICAL BAKERY,4000 WHITE PLAINS ROAD,Bronx,NY,10466,40.888611204387,-73.860010761408,ChIJw6NziCPzwokRD7sxSS9kjbk
ALIOTTA BAKE SHOP,4522 AVENUE N,Brooklyn,NY,11234,40.61865486944,-73.931406212322,ChIJNzgL5VlDwokRKJ63HjvcTCM
CIRCO PASTRY SHOP,312 KNICKERBOCKER AVENUE,Brooklyn,NY,11237,40.701580462147,-73.923252716564,ChIJGxTVWhtcwokRc9ZSEIELqeg
ARTUSO PASTRY SHOP,670 EAST  187 STREET,Bronx,NY,10458,40.854310632862,-73.885040241969,ChIJW3Cjz4b0wokRw-nKbYBqNB0
HUNGARIAN PASTRY SHOP,1030 AMSTERDAM AVENUE,Manhattan,NY,10025,40.803472115272,-73.963510698204,ChIJJ08I7Tz2wokRe5Z0jqyF3F0
ZARO'S BAKERY,89 EAST   42 STREET,Manhattan,NY,10017,40.752093933162,-73.977604354379,ChIJR9legAFZwokRor4YJXo0PQg
ALFONSO'S PASTRY SHOPPE,1899 VICTORY BOULEVARD,Staten Island,NY,10314,40.612741882335,-74.127216633526,ChIJleI6zitMwokRblziiatVJF4
CHAMPION BAKERY,3978 WHITE PLAINS ROAD,Bronx,NY,10466,40.887983064438,-73.860341209045,ChIJH1a5dyPzwokRR-M50KV0Ajk
O.B'S BAKERY,16576 BAISLEY BOULEVARD,Queens,NY,11434,40.679399630767,-73.77779180061,ChIJqVDdzc5mwokR-QZCJ56y4xA
BAGEL WORKS,1229 FIRST AVENUE,Manhattan,NY,10065,40.76422872594,-73.9586155284,ChIJn_xme8JYwokRn7tMojU2eJ8
HIGHWAY BAGELS,1921 KINGS HIGHWAY,Brooklyn,NY,11229,40.610379811121,-73.954360538415,ChIJoYn42ZVEwokRQnoFHNLBUbc
CAPRI BAKERY,186 EAST  116 STREET,Manhattan,NY,10029,40.798134944581,-73.940506490517,ChIJ5Q9gGAb2wokR4ImEyD_EVYY
RENATO'S PASTRY SHOP,1646 FOREST AVENUE,Staten Island,NY,10302,40.624895772441,-74.143497472352,ChIJO_iDZslNwokRCv_jfWMwlgY
PASTICCERIA LA TORRE,15812 CROSSBAY BOULEVARD,Queens,NY,11414,40.660446614126,-73.840202723534,ChIJ-5AXDX5nwokRq_S7QUeDJE8
MANNA HOUSE,125 MOTT STREET,Manhattan,NY,10013,40.718151578241,-73.996933671778,ChIJ5WcwMIhZwokRVevxrs92WCU
THE CAKE CHEF,957 JEWETT AVENUE,Staten Island,NY,10314,40.613056296991,-74.130750549472,ChIJjQamHCxMwokRbORFCwxMR18
NITA'S EUROPEAN BAKERY,4010 GREENPOINT AVENUE,Queens,NY,11104,40.739591120756,-73.924922854533,ChIJZ2H6htBewokR9nfC5NFyic4
FRANCO BAKERY,527 EAST  138 STREET,Bronx,NY,10454,40.80712400336,-73.918210614421,ChIJlx-qgMH1wokRHPW6eCekjsU
MANNA ONE BAKERY,27 CATHERINE STREET,Manhattan,NY,10038,40.712623617937,-73.997067391413,ChIJO18keCZawokRLL5HN5kOMgA
AMY'S BREAD,672 9 AVENUE,Manhattan,NY,10036,40.761342818565,-73.990488194721,ChIJtUaeYFFYwokR691nhqI4b1k
CREATIVE CAKES,400 EAST   74 STREET,Manhattan,NY,10021,40.76896470072,-73.954706328565,ChIJfcsL28BYwokRNs5X8k9N9pA
PATMAR BAKE SHOP,20507 LINDEN BOULEVARD,Queens,NY,11412,40.695824284574,-73.747253254218,ChIJU7xuCuJjwokR61toU0rts3s
BAGEL BAZAAR,2208 86 STREET,Brooklyn,NY,11214,40.601778331986,-73.993561174222,ChIJsX8sOgZFwokRG3RAMmHYkMY
VITO'S BAKERY,1916 AVENUE U,Brooklyn,NY,11229,40.599270814209,-73.952286784458,ChIJB4zj7I5EwokR-m0h2vL31a8
APOLLO BAKERY,13536 39 AVENUE,Queens,NY,11354,40.759904894823,-73.831585030599,ChIJ-c14Og5gwokRfOGJb3UpRFo
BAKER'S DOZEN BAGEL,8109 LEFFERTS BOULEVARD,Queens,NY,11415,40.709102422643,-73.830040250571,ChIJt23orLxgwokRBw-h9xiR5QA
BAGEL SHOPPE,21503 73 AVENUE,Queens,NY,11364,40.740578658384,-73.759081680593,ChIJAWrve41hwokRXhnA0Nxuf6k
BOOTH THEATER,220 WEST   45 STREET,Manhattan,NY,10036,40.75855654221,-73.986961974183,ChIJEUd4ZVZYwokRGmgD7ENcYyE
MAJESTIC THEATER,245 WEST   44 STREET,Manhattan,NY,10036,40.75808178794,-73.98777062143,ChIJhWqFh1RYwokR-DHQDzkMAag
BERNARD B JACOBS THEATER,242 WEST   45 STREET,Manhattan,NY,10036,40.758696562158,-73.987294034409,ChIJMzK4QlRYwokRkLID5IVMgTQ
SHUBERT THEATER,225 WEST   44 STREET,Manhattan,NY,10036,40.757955496709,-73.987471047157,ChIJkzFqiVJYwokRqc4h6tVHx_s
BROADHURST THEATER,235 WEST 44th Street,Manhattan,NY,10036,40.758018642617,-73.987622638957,ChIJ58DNYVRYwokRUvOU0Ih8tfQ
BROADWAY THEATRE,1681 BROADWAY,Manhattan,NY,10019,40.763109574715,-73.982979371412,ChIJEUd4ZVZYwokR9mtgzHTtv1s
IMPERIAL THEATRE,249 WEST   45 STREET,Manhattan,NY,10036,40.758721266984,-73.987312077931,ChIJMzK4QlRYwokRQ_vHisHrxsg
SCHOENFIELD,236 WEST   45 STREET,Manhattan,NY,10036,40.758658125508,-73.987203800588,ChIJiWtLIFZYwokRGiU3LaSBgMc
WINTER GARDEN THEATER,1634 BROADWAY,Manhattan,NY,10019,40.761558925412,-73.983943587158,ChIJz0V3b1RYwokRB0ugvJ-VuOI
THE JOYCE THEATER,175 EIGHTH AVENUE,Manhattan,NY,10011,40.742750205328,-74.000346443073,ChIJ08b1_7tZwokRtbJxZjQbABM
WALTER READE THEATER,70 LINCOLN CENTER PLAZA,Manhattan,NY,10023,40.773990001732,-73.984478540062,ChIJc35xtPFZwokRvN2YITnNpsQ
GERSHWIN THEATRE,222 WEST   51 STREET,Manhattan,NY,10019,40.762258864807,-73.984131129618,ChIJZUczMVZYwokR2GRTDrcGv10
RICHARD ROGERS THEATRE,226 WEST   46 STREET,Manhattan,NY,10036,40.759047766268,-73.986211066621,ChIJsy0KRlRYwokR6G7Y-3euStQ
NEDERLANDER THEATER BA,208 WEST   41 STREET,Manhattan,NY,10036,40.755608788025,-73.988038178826,ChIJE_d8UqtZwokRMvi5sxjBjSE
MINSKOFF THEATRE,200 WEST   45 STREET,Manhattan,NY,10036,40.758032145021,-73.985716760669,ChIJB4cC_1RYwokRu6mRBD_lqO8
MARQUIS THEATER,1535 BROADWAY,Manhattan,NY,10036,40.75825992874,-73.985467647469,ChIJMeF2rVVYwokRpUruDmEyjig
BROOKS ATKINSON THEATER,256 WEST   47 STREET,Manhattan,NY,10036,40.759928854034,-73.986380540186,ChIJJfoZJVRYwokRRkqiNbYBY3I
LUNT FONTANNE THEATER,205 WEST   46 STREET,Manhattan,NY,10036,40.758891264392,-73.985795988251,ChIJp8ENSlRYwokRIIpmnGxjieo
CAFE MADISON,51 MADISON AVENUE,Manhattan,NY,10010,40.743015641993,-73.986402054932,ChIJVUmLFYJZwokRXUaF0vC8UbA
ROYS REST & SPORTS BAR,11101 LIBERTY AVENUE,Queens,NY,11419,40.6847988331,-73.830996632665,ChIJS-KpEVBnwokRlC8nyAMQra8
DEVON & BLAKELY,250 PARK AVENUE,Manhattan,NY,10177,40.755011197611,-73.975567640574,ChIJjUc06v1YwokRAPEJZnAaZSE
THE MUFFIN CAFE,222 COLUMBUS AVENUE,Manhattan,NY,10023,40.776286601988,-73.979621736879,ChIJMXepBItYwokROJfAFLRBiKM
ZARO'S BREAD BASKET,1 PENNSYLVANIA STATION (AMTRACK),Manhattan,NY,10121,40.750059234828,-73.992106724456,ChIJ30krXK5ZwokRN_iwisXhHxI
LA ISLA RESTAURANT,1883 THIRD AVENUE,Manhattan,NY,10029,40.790339613959,-73.945554959121,ChIJS2kUjAL2wokRNCl0iqFz1AE
HAMILTON DELI,1129 AMSTERDAM AVENUE,Manhattan,NY,10025,40.806468652252,-73.961291127399,ChIJ09ymdT72wokRDJy7o7SU494
ROTI CORNER RESTAURANT,18018 HILLSIDE AVENUE,Queens,NY,11432,40.713034345317,-73.782170176262,ChIJJYUrvhBhwokRMtECY66zySM
WOODROW DINER,655 ROSSVILLE AVENUE,Staten Island,NY,10309,40.542592288455,-74.208331211757,ChIJmwHuhzdLwokRJgk3PxMZBcY
TAJIN RESTAURANT,85 GREENWICH STREET,Manhattan,NY,10006,40.707717935637,-74.013684495755,ChIJH4yL3hBawokR8siBXvZFWYM
GEMINI'S LOUNGE,10723 LIBERTY AVENUE,Queens,NY,11417,40.68363928819,-73.833898466949,ChIJT8Xcb1pnwokR6VAfF1GqrpE
PIZZA PARK,1233 FIRST AVENUE,Manhattan,NY,10065,40.764324766383,-73.958543269375,ChIJYceQZMJYwokR5WkZsPbm5dQ
KITTY KIERNANS,9717 3 AVENUE,Brooklyn,NY,11209,40.615568677708,-74.034271887202,ChIJ1c9U64hPwokR8JIyztxRsow
RAINBOW FALAFEL,26 EAST   17 STREET,Manhattan,NY,10003,40.73731520658,-73.990809184838,ChIJ53xZcg5ZwokRU19V4Noy5j8
ALFONSO'S PASTRY SHOPPE,4366 AMBOY ROAD,Staten Island,NY,10312,40.545125402333,-74.160923690384,ChIJJXGLCa1LwokRTkU2qg79A60
GREEN SYMPHONY,547 6 AVENUE,Manhattan,NY,10011,40.737853494706,-73.996488914149,ChIJizZBb71ZwokRmeogtgN0CTM
THE ASTORIA WORLD MANOR,2522 ASTORIA BOULEVARD,Queens,NY,11102,40.771214581318,-73.922410378619,ChIJcW6Td0ZfwokRPfiMBVzwTcI
STARBUCKS COFFEE,38 PARK ROW,Manhattan,NY,10038,40.711802776132,-74.006658706681,ChIJkY-ukhhawokRhOxhNLvyfZg
BLUE RIBBON SUSHI,119 SULLIVAN STREET,Manhattan,NY,10012,40.726053772095,-74.002695082161,ChIJS7q7to1ZwokRWbN1t_AXYME
BARRACUDA BAR,275 WEST   22 STREET,Manhattan,NY,10011,40.744388817752,-73.998394052353,ChIJg912rrtZwokRplCG3u0bCuo
MCDONALD'S,5713 CHURCH AVENUE,Brooklyn,NY,11203,40.652525984176,-73.923511182349,
BELLA BLU,967 LEXINGTON AVENUE,Manhattan,NY,10021,40.769283327591,-73.963020460881,ChIJ4Up-r-tYwokR95jJFUROzH0
CHELSEA RISTORANTE,108 8 AVENUE,Manhattan,NY,10011,40.740675150524,-74.001833203947,ChIJ3Qtyib5ZwokRswc-QzntwIU
WHITE CASTLE,1831 WEBSTER AVENUE,Bronx,NY,10457,40.846264852237,-73.901756444945,ChIJ8bJOumj0wokRw8J9OW4INkY
ZARO'S BREAD BASKET,89 EAST   42 STREET,Manhattan,NY,10017,40.752093933162,-73.977604354379,ChIJR9legAFZwokRor4YJXo0PQg
ELIAS CORNER FOR FISH,2402 31 STREET,Queens,NY,11102,40.772153948051,-73.915567603962,ChIJScZWqUNfwokRqxFvoiuIfk0
DOC WATSONS,1490 2 AVENUE,Manhattan,NY,10075,40.772415250053,-73.955707662814,ChIJwbsdE79YwokRZEzH1mMqiwk
CONNOLLY'S PUB,14 EAST   47 STREET,Manhattan,NY,10017,40.756282459109,-73.977718445279,ChIJW5xpb_1YwokR_ioNQo7Ot4c
NINA'S GREAT BURRITO BAR,522 COLUMBUS AVENUE,Manhattan,NY,10024,40.785957643232,-73.972566222568,ChIJH6XFuohYwokR4WAtnrkS-MY
EL CONTINENTAL RESTAURANT,672 FIFTH AVENUE,Brooklyn,NY,11215,40.661993327407,-73.992758767975,ChIJq2h5ceZawokRVj1KusWWpew
MCGEES PUB,240 WEST   55 STREET,Manhattan,NY,10019,40.764945783499,-73.982751471017,ChIJ92Q_APhYwokR0Ct3Oz-9CAE
ACE BAR,531 EAST    5 STREET,Manhattan,NY,10009,40.724504576151,-73.983552084448,ChIJuddLo4JZwokRdm_oW8FoWN4
B66 CLUB,6612 NEW UTRECHT AVENUE,Brooklyn,NY,11219,40.622765123659,-73.997961115377,ChIJD77nYzxFwokRD0rJf1SIPbA
PADDY MAGUIRE'S ALE HOUSE,237 THIRD AVENUE,Manhattan,NY,10003,40.736727169718,-73.98466045966,ChIJS-udFaBZwokRQ8Bg5mBTGpY
BURGER KING,950 JEWETT AVENUE,Staten Island,NY,10314,40.612913560092,-74.130757472302,ChIJWyz_GyxMwokRpsjsnyQm5Tw
SKYLIGHT DINER,402 WEST   34 STREET,Manhattan,NY,10001,40.753479426313,-73.99656027467,ChIJBfwSR7JZwokRZl9embIrXE0
ARTE CAFE & EL COCO,104-110 WEST   73 STREET,Manhattan,NY,10023,40.778295614213,-73.978805097887,ChIJUTdoNVtZwokREZKjv8SrgYQ
PIAXTLA ES MEXICO DELI,505 51 STREET,Brooklyn,NY,11220,40.644308459166,-74.01050041606,ChIJ83ydO7RawokRnSEKeICgR1M
SOHO GRAND HOTEL,310 WEST BROADWAY,Manhattan,NY,10013,40.721706010857,-74.004347203917,ChIJH8Pll4pZwokR8v9iZ3fgZ-Q
CREATIVE EDGE CATERERS,110 BARROW STREET,Manhattan,NY,10014,40.731847689049,-74.00850089398,ChIJAzdC5OxZwokRk8ZBXQjEqvU
RENEE'S KITCHENETTE,6914 ROOSEVELT AVENUE,Queens,NY,11377,40.746342714386,-73.896097517061,ChIJZ949wwNfwokRhpCbCHtoMyQ
FREDDIE & PEPPER'S PIZZA,303 AMSTERDAM AVENUE,Manhattan,NY,10023,40.780099223028,-73.980530490718,ChIJhaWpnIlYwokRd67HWz_uqic
ARTIE'S,394 CITY ISLAND AVENUE,Bronx,NY,10464,40.849516303236,-73.787345831632,ChIJ3VUSaXmMwokRrzJhPuq_uXA
STARBUCKS,78 SPRING STREET,Manhattan,NY,10012,40.722595377766,-73.997857034258,ChIJLX0UK4lZwokRNfkbbR_8FKY
CAMPUS CENTER CAFETERIA (1C),2800 VICTORY BOULEVARD,Staten Island,NY,10314,40.608845221944,-74.153334607833,ChIJb8g8b0BMwokR72im49Lpv9g
CYBER CAFE,2800 VICTORY BOULEVARD,Staten Island,NY,10314,40.608845221944,-74.153334607833,ChIJOahW1EVMwokRufcmWyffnL8
BLUE BAY DINER,5850 FRANCIS LEWIS BOULEVARD,Queens,NY,11364,40.744167702635,-73.776145833857,ChIJ232JOL9hwokRSyXVYrL8sKA
STARBUCKS,7000 AUSTIN STREET,Queens,NY,11375,40.720884659438,-73.846810679703,ChIJo3-wrCZewokRvyrqYnFOxx4
TIRAMISU RESTAURANT,1410 3 AVENUE,Manhattan,NY,10028,40.775102745133,-73.956702378113,ChIJcV9QYb5YwokR5onE4zjFoq8
TOPAZE RESTAURANT & JERK CHICKEN,1875 UTICA AVENUE,Brooklyn,NY,11234,40.62657677588,-73.927687487521,
MCDONALD'S,803 FOREST AVENUE,Staten Island,NY,10310,40.629011555919,-74.11561493311,ChIJNZmwcnFOwokR1REF7nfUSrI
KING'S CARRIAGE HOUSE,251 EAST   82 STREET,Manhattan,NY,10028,40.775757979449,-73.95472696418,ChIJc8woqr5YwokR4juQPWnewxw
POPEYES,2730 FREDRICK DOUGLAS BOULEVARD,Manhattan,NY,10039,40.822926167108,-73.941831944483,ChIJxSpLUXn2wokR4GSEdhJT2yo
STARBUCKS,24 STATE STREET,Manhattan,NY,10004,40.703526585057,-74.014386928913,ChIJR4q4lhNawokRlXuf3R_uwv0
SISTERS CUISINE,1931 MADISON AVENUE,Manhattan,NY,10035,40.805043653834,-73.940850672434,ChIJ4bMvkQv2wokRUPRQUqYPUEc
CAPRI II PIZZA,149 DREISER LOOP,Bronx,NY,10475,40.87645270534,-73.829950735851,ChIJZa8K_sWMwokR2o7K-21c0Bs
AMY'S BREAD,75 NINTH AVENUE,Manhattan,NY,10011,40.741869040229,-74.004713006739,ChIJw2lMFL9ZwokRCqwckWr0whc
CLUB MACANUDO (CIGAR BAR),26 EAST   63 STREET,Manhattan,NY,10065,40.765983254012,-73.969365151136,ChIJey0cTO5YwokRIWhN3xZgqc8
GRAND PLAZA,23 NELSON AVENUE,Staten Island,NY,10308,40.54937182635,-74.150682390109,ChIJWW1zCbdLwokR6g276DeLWWw
"BOBBY VAN'S , LEA WINE BAR",230 PARK AVENUE,Manhattan,NY,10169,40.75450075314,-73.975950427165,ChIJSW0wjf1YwokRSDmX1_gp5FI
SWIFT HIBERNIAN LOUNGE,34 EAST    4 STREET,Manhattan,NY,10003,40.727467103523,-73.992354751418,ChIJeRqd0JpZwokRG4UKjO1bU4I
DRAGON CITY,2102 BARTOW AVENUE,Bronx,NY,10475,40.869400497098,-73.825622781784,ChIJjeOP67iMwokRlQs3QkC3UU8
ROMEO'S PIZZERIA,18808 UNION TURNPIKE,Queens,NY,11366,40.729248194919,-73.780969608427,ChIJZW00sWlhwokRcOJlFmnKVIs
MONA'S,224 AVENUE B,Manhattan,NY,10009,40.729062760323,-73.978304867787,ChIJjZDVonZZwokRoZPvylQfyFY
CORNER GOURMET,66 WEST BROADWAY,Manhattan,NY,10007,40.71464337504,-74.009934378528,ChIJSUa60x5awokRV-yrgL_TWZU
NACIONAL BAKERY #1,1484 WESTCHESTER AVENUE,Bronx,NY,10472,40.828442600629,-73.880759806767,ChIJtamdZvr0wokR0dNb3msGYYs
TAP-A-KEG,2731 BROADWAY,Manhattan,NY,10025,40.800190758375,-73.968081567887,ChIJRX17_ST2wokReG4f7Y_fzpc
STARBUCKS,124 8 AVENUE,Manhattan,NY,10011,40.741199405728,-74.001450696472,ChIJtRTUNABZwokR9F-wucx6W2M
DESSEO NIGHT CLUB,5215 ROOSEVELT AVENUE,Queens,NY,11377,40.744245473857,-73.912239646968,ChIJnwXGBOBewokRT6yfxZEhphA
DYCKMAN EXPRESS RESTAURANT,101 DYCKMAN STREET,Manhattan,NY,10040,40.861770801137,-73.924845853614,ChIJr05wJAb0wokREaqqcm-gFvg
BROOKLYN MOON,745 FULTON STREET,Brooklyn,NY,11217,40.686474196957,-73.9748284361,ChIJ55bjr7FbwokRqIo9XbNZVAk
LIMITLESS FITNESS,15705 CROSSBAY BOULEVARD,Queens,NY,11414,40.662220325361,-73.84062017463,ChIJR3z8lX1nwokRgOO3nVZzKs8
DYKER PARK BAGELS,713 86 STREET,Brooklyn,NY,11228,40.618673385958,-74.021547451245,ChIJHRUJ92ZFwokRxweGBVGr83Y
ADRIA HOTEL,22117 NORTHERN BOULEVARD,Queens,NY,11361,40.761726444713,-73.760069791107,ChIJP3gesuJhwokRjvRGHCe6yn4
VON,3 BLEECKER STREET,Manhattan,NY,10012,40.725304235874,-73.992477666845,ChIJOcgLF4VZwokR0Sk_RSn9sTo
CHIU HONG BAKERY,161 MOTT STREET,Manhattan,NY,10013,40.719573348644,-73.996280644592,ChIJ01SnXohZwokRp7G92puOKzU
ANTONIO'S PIZZA,318 FLATBUSH AVENUE,Brooklyn,NY,11238,40.677037093813,-73.972369651547,ChIJzQM0O1pbwokRzXLvOD_dtqY
NEIL SIMON THEATRE,250 WEST   52 STREET,Manhattan,NY,10019,40.763063073345,-73.984091228514,ChIJnSTPzldYwokRyyefzoK7Xao
JADE ISLAND RESTAURANT,2845 RICHMOND AVENUE,Staten Island,NY,10314,40.576546043057,-74.16975073491,ChIJb4WRHYNLwokR465vNzRW3OM
TRINITY PUBLIC HOUSE,229 EAST   84 STREET,Manhattan,NY,10028,40.77717679085,-73.954155512284,ChIJzVHIdbxYwokRRbRhPPjwQDg
CASSIDY'S ALE HOUSE,7502 31 AVENUE,Queens,NY,11370,40.758550730751,-73.892374905637,ChIJm3HotgtfwokR-DjjUKOflZo
RIAZOR BLUE TAPAS BAR,8905 NORTHERN BOULEVARD,Queens,NY,11372,40.756258933279,-73.878694933247,ChIJtc34sqZfwokRxmTCS0CGK5o
NORA'S PARK BENCH CAFE,3019 QUENTIN ROAD,Brooklyn,NY,11234,40.611929998452,-73.940997229209,ChIJf4aQkaFEwokRWpOMXW-9AdM
810 DELI & CAFE,810 7 AVENUE,Manhattan,NY,10019,40.762631860167,-73.9821456155,ChIJg7zLZfhYwokRVZbxFUufhP8
BULL MCCABES,29 ST MARKS PLACE,Manhattan,NY,10003,40.728888555357,-73.988349676108,ChIJpVqBe5xZwokRMIOr6FtZg9Y
NEW RUAN'S RESTAURANT,1955 86 STREET,Brooklyn,NY,11214,40.60514087309,-73.999132083072,ChIJgRGD6g5FwokR2mp0hLhkr-Q
COSMOS RESTAURANT,726 EAST TREMONT AVENUE,Bronx,NY,10457,40.844989166896,-73.890304453456,ChIJ__R07WH0wokRnLupQgdk_2Q
EDWARD'S,136 WEST BROADWAY,Manhattan,NY,10013,40.716806388717,-74.008213985776,ChIJ13pGoR9awokRs3n54AZdmGc
"DUNKIN', BASKIN ROBBINS",9925 HORACE HARDING EXPRESSWAY,Queens,NY,11368,40.736184743398,-73.858051712626,ChIJlenrnjRewokRoR3m5_U8Nes
MCDONALD'S,4040 BROADWAY,Manhattan,NY,10032,40.842549706002,-73.939230553997,ChIJLZlXKZz2wokRKB7aI6Kl36U
RED EYE GRILL,888 7 AVENUE,Manhattan,NY,10106,40.76500853812,-73.980415789365,ChIJ1_LNnPdYwokR4md6qC18AMU
MUSTANG HARRY'S,352 SEVENTH AVENUE,Manhattan,NY,10001,40.748201068465,-73.992662743547,ChIJ6bXru69ZwokRQQ77x79D89M
BAKE AND THINGS RESTAURANT,184 EAST   35 STREET,Brooklyn,NY,11203,40.650633311949,-73.944739631692,ChIJB7EJgGdbwokRIoubMkIh5HM
BOWLER LAND,2417 HOLLERS AVENUE,Bronx,NY,10475,40.88587555189,-73.822809094059,ChIJzY-Ovd6MwokRvmsrUJBimQ0
BASTA PASTA RESTAURANT,37 WEST   17 STREET,Manhattan,NY,10011,40.738468193031,-73.993529871286,ChIJ8ZR_2qJZwokRbgMBJB59zRo
TOWNE DELI & PIZZA,5373 ARTHUR KILL ROAD,Staten Island,NY,10307,40.513368808085,-74.248011994499,ChIJ2V-xxJ3Kw4kRxRjvo74pg1Q
"SAKAGURA, KIOSK",211 EAST   43 STREET,Manhattan,NY,10017,40.751231194054,-73.973457624912,ChIJ14y5HwNZwokRxY9i9s7Ugcg
CUCCIO'S BAKERY,320 AVENUE X,Brooklyn,NY,11223,40.590414238221,-73.971289470632,ChIJ11QHAFpEwokR_cnJrPXr_ag
FOREST HILLS SPA,5921 CALLOWAY STREET,Queens,NY,11368,40.737574816684,-73.856825456444,ChIJl0uR18xfwokR3HxivZCf3LA
PONGAL INDIAN CUISINE,110 LEXINGTON AVENUE,Manhattan,NY,10016,40.742356396587,-73.982674340241,ChIJE5Ex1AlZwokRvFG2E-cZIVM
UNITED CYPRIANS OF AMERICA,2816 ASTORIA BOULEVARD,Queens,NY,11102,40.770705509769,-73.920522784925,ChIJCxnlmkZfwokR0-sVs4Z6J1E
LE GIGOT,18 CORNELIA STREET,Manhattan,NY,10014,40.731510382828,-74.001861816213,ChIJicZ4uJNZwokR_iq6h-BM3F0
CORATO PIZZA II,6091 MYRTLE AVENUE,Queens,NY,11385,40.700759367744,-73.895029179324,ChIJQ1HohilcwokR10DoLW1gz4s
YONAH SHIMMELS KNISHES,137 EAST HOUSTON STREET,Manhattan,NY,10002,40.723347032954,-73.990057103595,ChIJoxECaYRZwokRoCxDCS0m4m4
BENNY'S FAMOUS PIZZA,4514 13 AVENUE,Brooklyn,NY,11219,40.637122660762,-73.989943893884,ChIJv_TSW9RawokR1tRrEEjtpcM
MURRAY'S BAGELS,500 AVENUE OF THE AMERICAS,Manhattan,NY,10011,40.736439967646,-73.997492134944,ChIJw94eyZdZwokRIFFh8Jtcoa8
ALBA'S PIZZA,3620 DITMARS BOULEVARD,Queens,NY,11105,40.774198457282,-73.907990183943,ChIJeaUtoWhfwokRSEYUh2yFQUI
CALIENTE CAB CO,61 7 AVENUE SOUTH,Manhattan,NY,10014,40.731622866008,-74.00392930483,ChIJ39BEdZNZwokRwjlY27mF_V8
ARIYOSHI JAPANESE RESTAURANT,4113 QUEENS BOULEVARD,Queens,NY,11104,40.743676878478,-73.92311742455,ChIJOxb2ytlewokRyiUbE8vTIpk
POST BILLIARDS CAFE,154 POST AVENUE,Manhattan,NY,10034,40.864912331284,-73.919057588359,ChIJNfQ5D_bzwokRC3modApp6fU
PROHIBITION,503 COLUMBUS AVENUE,Manhattan,NY,10024,40.78535389631,-73.972981748819,ChIJSc_3GIVYwokRh6OzVnCnh6g
PC'S BAR AND GRILL,7215 5 AVENUE,Brooklyn,NY,11209,40.631502458423,-74.021796595907,ChIJM_sBZVpFwokR_KMGswelMEc
THE NEPTUNE DINER,3105 ASTORIA BOULEVARD,Queens,NY,11102,40.770606957172,-73.917010082141,ChIJsVf_5kNfwokRYM739q7ZNao
BERK'S BAR,21 EAST   52 STREET,Manhattan,NY,10022,40.759424737802,-73.975414408462,ChIJqTQ9UexZwokR-CENjfkUmkM
PASTA PASTA RESTAURANT,2023 WILLIAMSBRIDGE ROAD,Bronx,NY,10461,40.854569974175,-73.854707363094,ChIJO_oK86f0wokRG_C8AgOw9Jg
DON PEPI PIZZA,000 PENN STATION,Manhattan,NY,10121,40.750059234828,-73.992106724456,ChIJiag-Wq5ZwokRF7-3vlvEWJQ
CHURRASCARIA PLATAFORMA,316 WEST   49 STREET,Manhattan,NY,10019,40.762034209369,-73.987484716284,ChIJP9idxlZYwokRLH-I1mNfzYQ
KURUMAZUSHI RESTAURANT,7 EAST   47 STREET,Manhattan,NY,10017,40.756436227556,-73.978039641499,ChIJWbiHfP5YwokRrASkORRH1fQ
REBAR,223 WEST   19 STREET,Manhattan,NY,10011,40.742140860176,-73.998614240429,ChIJ4cDNebxZwokRpktDMbgATW4
GIAN PIERO BAKERY,4417 30 AVENUE,Queens,NY,11103,40.762289027134,-73.911576837783,ChIJ_TkodRVfwokRkVfNWsnzo9A
OMONIA CAFE,7612 3 AVENUE,Brooklyn,NY,11209,40.630576078226,-74.028162250774,ChIJt6V79VhFwokRHA6HrhjjFV8
THE BURRITO BAR RESTAURANT,585 FOREST AVENUE,Staten Island,NY,10310,40.630132621599,-74.108793422244,ChIJHXQ_MWxOwokRzipS0hA9tvc
ALIBI CLUB,242 DEKALB AVENUE,Brooklyn,NY,11205,40.689467451902,-73.96950140624,ChIJ92wJjLlbwokR_fBkYGaPfcA
ROMA VIEW CATERING,160-05 CROSS BAY BOULEVARD,Queens,NY,11414,40.657195637346,-73.839377984047,ChIJozFppn9nwokRzW4br2IeGv4
SPOLINI'S,11625 METROPOLITAN AVENUE,Queens,NY,11418,40.707290539991,-73.835458787237,ChIJK-MMKqxgwokRAfkM2YZvcIg
RAY'S PIZZA RESTUARANT,553 EAST  138 STREET,Bronx,NY,10454,40.80696454257,-73.917838746424,ChIJLflThcH1wokR1ydtcdsAGo0
MCDONALD'S,4259 BROADWAY,Manhattan,NY,10033,40.850073936845,-73.935858434532,ChIJJ2Gmg6D2wokR_4K1TM2mI2o
JJ GARDEN RESTAURANT,7521 31 AVENUE,Queens,NY,11370,40.758580814687,-73.892259348177,ChIJQbBWD5hfwokRvwiFxiQgPkQ
STARBUCKS #7277,304 PARK AVENUE SOUTH,Manhattan,NY,10010,40.739999160011,-73.98650732328,ChIJqSFfJaFZwokRydO3XgBwnAM
MONTEZUMA RESTAURANT,119 WEST KINGSBRIDGE ROAD,Bronx,NY,10468,40.868621049983,-73.902168012359,ChIJCw8XbY_zwokRdoPMNOoJM4Y
MCDONALD'S,2170 WHITE PLAINS ROAD,Bronx,NY,10462,40.855581942878,-73.867646601463,ChIJOTSCuZ_0wokRPDAClBl5hww
AKIYAMA JAPANESE RESTAURANT,13216 14 AVENUE,Queens,NY,11356,40.786249815143,-73.835865965584,ChIJmXshib1ZwokRm7gn88vJ194
PARISI BAKERY,198 MOTT STREET,Manhattan,NY,10012,40.721244887896,-73.995598712081,ChIJUekTvYhZwokRkaWEMslVxkw
GOODY'S BBQ,7018 AMSTEL BOULEVARD,Queens,NY,11692,40.592622470982,-73.799782785792,ChIJR51f2GBowokR8qa093vBLV4
GINO'S PIZZA,218 FLATBUSH AVENUE,Brooklyn,NY,11217,40.681089055222,-73.975317209995,ChIJsxNPwK5bwokRkkJpF1DPw8M
THE GIN MILL,442 AMSTERDAM AVENUE,Manhattan,NY,10024,40.784654906846,-73.977235864784,ChIJRyfaCIZYwokRd1gVsI1fa0Q
"DUNKIN', BASKIN ROBBINS",3602 31 STREET,Queens,NY,11106,40.756312662713,-73.929975311835,ChIJ4Y-WUn5fwokROJeMZys3DoE
KILLMEYER'S OLD BAVARIA INN.,4256 ARTHUR KILL ROAD,Staten Island,NY,10309,40.538574873105,-74.237413449176,ChIJVVVZIDy1w4kR7hYgSuVrFwc
GIGI'S PIZZERIA,2009 FRANCIS LEWIS BOULEVARD,Queens,NY,11357,40.780002153935,-73.802391102171,ChIJM3wJ5YaKwokRZgijtUBSt9I
ACAPULCO DELI & RESTAURANT,1116 MANHATTAN AVENUE,Brooklyn,NY,11222,40.736678320215,-73.955312929879,ChIJ-dUXIjxZwokRQiv7dlSQ-bA
LENNY'S PIZZA,594 5 AVENUE,Brooklyn,NY,11215,40.664364639784,-73.990368709566,ChIJ79uBXuRawokRtd59o7m6W2Y
LA BELLA ROSA BAKERY,605 EAST TREMONT AVENUE,Bronx,NY,10457,40.846345017107,-73.893164834798,ChIJx2B03GP0wokRRzv9QAy73EE
BARROW'S PUB,463 HUDSON STREET,Manhattan,NY,10014,40.731499225499,-74.00666068247,ChIJMQim1uxZwokRIyU5nBAMHuU
LA FAMILIA RESTAURANT,938 4 AVENUE,Brooklyn,NY,11232,40.654719822342,-74.003996837927,ChIJzdlg2sBawokR1d9BXbRfCfk
BIRDLAND,315 WEST   44 STREET,Manhattan,NY,10036,40.758834027381,-73.989546433937,ChIJdc9EhVNYwokR-naSYfm_Urc
CATCH 22,7221 3 AVENUE,Brooklyn,NY,11209,40.633307412129,-74.027021307222,
EL GAUCHITO RESTAURANT,9460 CORONA AVENUE,Queens,NY,11373,40.742286205323,-73.869478435952,ChIJqwQssrVfwokR9FuqCI2Tud4
ORIENTAL STAR RESTAURANT,11217 FARMERS BOULEVARD,Queens,NY,11412,40.700347407474,-73.763858361805,ChIJP-kovENhwokRkxNixY9OgFs
KENNEDY FRIED CHICKEN,696 ALLERTON AVENUE,Bronx,NY,10467,40.865410742505,-73.867569116686,ChIJVU6bsGfzwokRmXL4_fcgRb0
KISMAT INDIAN CUISINE,603 FORT WASHINGTON AVENUE,Manhattan,NY,10040,40.855234584885,-73.936851153613,ChIJAVwsl6f2wokR7o-m7mgeq5Q
DECHERT (THE DECH),1095 AVENUE OF THE AMERICAS,Manhattan,NY,10036,40.754680600627,-73.98424122485,ChIJr-YgyqpZwokRfp9MAhQCmZw
MANSIONS CATER,80 5 AVENUE,Manhattan,NY,10011,40.735800295966,-73.993771894425,ChIJqUo0iZJZwokRSjE13sZg0uo
THAI SON VIETNAMESE CUISINE,89 BAXTER STREET,Manhattan,NY,10013,40.716897259821,-73.999696980348,ChIJe5DgRidawokRLbT4Eer98rg
TICK TOCK DINER/ BUTCHER AND THE BANKER,481 8 AVENUE,Manhattan,NY,10001,40.752288062254,-73.9934021983,ChIJvZus661ZwokRoiVah4ItRhk
TRATTORIA BIANCA,481 8 AVENUE,Manhattan,NY,10001,40.752288062254,-73.9934021983,ChIJGwGp6q1ZwokRZAEGF2dtd9c
QUALITY MEATS,57 WEST   58 STREET,Manhattan,NY,10019,40.764513543649,-73.975528041654,ChIJo8ujsPBYwokRbJ1cEtujTcc
MALECON RESTAURANT,764 AMSTERDAM AVENUE,Manhattan,NY,10025,40.794935011752,-73.969734608779,ChIJWXNcyif2wokR4iD2xkH_QM8
SERAFINA FABULOUS PIZZA,1022 MADISON AVENUE,Manhattan,NY,10075,40.775996787348,-73.96236681198,ChIJj7xBzZVYwokRZ9y7hcx3III
STARBUCKS COFFEE,684 6 AVENUE,Manhattan,NY,10010,40.741918358875,-73.993504273784,ChIJTaean6RZwokRySirHzfCIbs
LENA'S RESTAURANT,206 EAST  198 STREET,Bronx,NY,10458,40.869889614104,-73.890545243455,ChIJlf7Yx4LzwokRIvmY2svirK4
ETHEL BARRYMORE THEATER,243 WEST   47 STREET,Manhattan,NY,10036,40.759830009406,-73.986102612727,ChIJwQJNLFRYwokRRtR0Yh8NHTE
TOWN HALL THEATRE,123 WEST   43 STREET,Manhattan,NY,10036,40.755836163663,-73.984381720672,ChIJc4_aOVVYwokRtXeQnWGC9RA
MUSIC BOX THEATER,239 WEST   45 STREET,Manhattan,NY,10036,40.758652629536,-73.987146047296,ChIJjQSBW1RYwokRFIw0FRJjPwM
LYCEUM THEATRE,149 WEST   45 STREET,Manhattan,NY,10036,40.757362210654,-73.984096204909,ChIJtehhClVYwokRjEHM1kjDj2M
AMBASSADOR THEATRE,219 WEST   49 STREET,Manhattan,NY,10019,40.761004627373,-73.985001385348,ChIJEUd4ZVZYwokRV4iyGw46pw0
CORT THEATRE,138 WEST   48 STREET,Manhattan,NY,10105,40.759135098729,-73.982540010809,ChIJ6XYJ9lVYwokRXDk-QdrWCZQ
GOLDEN THEATRE,252 WEST   45 STREET,Manhattan,NY,10036,40.758756963537,-73.987445628253,ChIJeYBWZFRYwokRsNGhheX3AfA
DOUGLASTON GOLF SNACKS,6320 MARATHON PARKWAY,Queens,NY,11362,40.754571762977,-73.728466134203,ChIJFT-4mQ5iwokRfFdjChgOq7I
